{"status": "OK", "html_attributions": [], "results": [{"place_id": "ChIJ__eKNhXnDDkRezfqzmotNXM", "formatted_address": "177, Old Sher Shah Suri Road, Ashoka Enclave, DLF Industrial Area, Sector 34, Faridabad, Haryana 121003, India", "photos": [{"photo_reference": "CoQBdwAAAAVwyHNmw6KD8JjxXfXX1vqYIebbtoSClGxb9H6U8sIx4zfqyHKVIGu1I4c6apA1vf-31QvtzqxrNAWwEWRfVOe_CRnnygAbIg5GwbLRZ3gcroNkEBNgNgAnyjUAzdeJDOOmYbuiRfhrPTsJUtmrEf7lMnyFsGhnPKu1StGqVA2ZEhBMUL4h0zwKzdbIJw0QWX-8GhR5L734rXpSaz24sIcCIrD9AFCsCg", "html_attributions": ["<a href=\"https://maps.google.com/maps/contrib/108149977044642107231/photos\">Aastha Children Clinic</a>"], "height": 529, "width": 529}], "rating": 4.6, "geometry": {"location": {"lat": 28.4716595, "lng": 77.31112929999999}, "viewport": {"northeast": {"lat": 28.4729979802915, "lng": 77.3124350302915}, "southwest": {"lat": 28.4703000197085, "lng": 77.30973706970849}}}, "opening_hours": {"weekday_text": [], "open_now": false}, "types": ["hospital", "point_of_interest", "establishment"], "id": "ccda10d54bbe279be828b5ad6d6bb9636a35be9c", "name": "Aastha Children Clinic", "reference": "CmRRAAAA3K4eYqc6HG5QbjkBNAUYHD4Jd1ZbKNdf7zZKyWRUrDhOCvRVtd_Oc2IHYpAxfeanXDnK0nWXJu9VI-t9I5ilV6QysXzyoLpGbO4W6Om0VwEdM9XX9ADIVOD1FUtfoAfMEhCjTTsW-A8zWkeymDLJ0FfWGhRvOdfTCGQsLcafPQUC31YUunSMvQ", "icon": "https://maps.gstatic.com/mapfiles/place_api/icons/doctor-71.png"}, {"place_id": "ChIJ9xO1eZDdDDkRLy3E34YOE1k", "formatted_address": "5, Opp.Huda Market, Sector 29, Faridabad, Haryana 121008, India", "rating": 3.5, "geometry": {"location": {"lat": 28.4338887, "lng": 77.3208369}, "viewport": {"northeast": {"lat": 28.4352376802915, "lng": 77.32218588029151}, "southwest": {"lat": 28.4325397197085, "lng": 77.3194879197085}}}, "reference": "CmRRAAAA_2dfdp3P6T3E83OpPdxAp6AMD0v1uM_J2NZ3IZZX4moQ4ySrhfTEcG5N0jCGt2u3WVrdyIr6qyB9-AjHcH_zzkxZmhsCsEnOZ4PmaNNzU6R-oRrY8mYPwl0x7qEByLx6EhDJsWFUlrSgl0aU9HfOFTUtGhTgEr9lp_tT0a3yU4CWdLlqSLDDiA", "types": ["hospital", "point_of_interest", "establishment"], "id": "f1cb697d57107ac046d212e55afb23c963384868", "name": "Brighton Kavita Hospital", "icon": "https://maps.gstatic.com/mapfiles/place_api/icons/doctor-71.png"}, {"place_id": "ChIJG6VMxwfcDDkR45ZGue3SINM", "formatted_address": "Mcf Residential Scheme, Sector 23, Faridabad, Haryana 121001, India", "photos": [{"photo_reference": "CoQBdwAAAMCdb6ygpf49FvSSWScFNx5KmXN-XiB6tKb7TPhBf6iRYL6NxSY-2hOjr4uq-7SOeyYtI4xg9xrXg_NRlo1pT4CSqlKYPMaVD-dzbLkTD7Mp67fRkxeY01LsO_ISifW0s1ArlYB59lsCpc3kae6_ipfnPMjShxnGO9VmD3L1ivY9EhCcb-OhxCMaWDGkNJEC26m1GhTPlUPkjIFKzAVJLy8CS0QMKhp4gA", "html_attributions": ["<a href=\"https://maps.google.com/maps/contrib/117630991907988351112/photos\">Yuvi Yuvi</a>"], "height": 1280, "width": 960}], "rating": 4, "geometry": {"location": {"lat": 28.3581512, "lng": 77.2950818}, "viewport": {"northeast": {"lat": 28.3595001802915, "lng": 77.2964307802915}, "southwest": {"lat": 28.3568022197085, "lng": 77.2937328197085}}}, "reference": "CmRSAAAA94-CWvVONVLvgagV539n3-EOyr04s-H9QOymA-dKYjUbcuyxlaxxc6sPmMA5Zv_0Ff3tx26_4qH47YFzg4nv0iT-KpEfAu5wtWwqX4ZXQfCkO4kvaEc_aP64euh-aHEOEhDLxjxnMzdAs706-NFOQeB0GhRCKzGPBFhCz9EY3_-mh2hwk4_TvQ", "types": ["hospital", "point_of_interest", "establishment"], "id": "3e9c4e38598df700fad70836b818c96ea5db32d1", "name": "Nims Hospital", "icon": "https://maps.gstatic.com/mapfiles/place_api/icons/doctor-71.png"}, {"place_id": "ChIJlzEOuJbbDDkRTxCA7sj4-ro", "formatted_address": "Mohna Road, Ballabgarh, Ballabgarh, Faridabad, Haryana 121004, India", "geometry": {"location": {"lat": 28.3371595, "lng": 77.32453389999999}, "viewport": {"northeast": {"lat": 28.3385084802915, "lng": 77.3258828802915}, "southwest": {"lat": 28.3358105197085, "lng": 77.32318491970848}}}, "reference": "CmRSAAAAd5vbvdiuGDYoCpNNeUHDBtECJQDPdYDVtT45lFRrZ41vEfWI6Bz0jXFjGSpyV_lB6CUoQ86AqNm_GQpHYL9rDzJSo_wLO5IPtte_uxmgXtSOaVNJ3ntDK34LUzFBQQ4MEhC1oLefHeqoZMWMOM-oE6xSGhQo9TFm1ItaepExHpg6z4eXGbGJww", "types": ["hospital", "point_of_interest", "establishment"], "id": "3819d973f2086a0daae49a7b13e863228a4e060e", "name": "Gupta Hospital", "icon": "https://maps.gstatic.com/mapfiles/place_api/icons/doctor-71.png"}, {"place_id": "ChIJKw8pdyPYDDkRWIR78QieJwk", "formatted_address": "20-21F, Fruit Garden, Near Green Automobile, Railway road, Faridabad, Haryana 121001, India", "rating": 3.8, "geometry": {"location": {"lat": 28.3959976, "lng": 77.3068931}, "viewport": {"northeast": {"lat": 28.3973465802915, "lng": 77.3082420802915}, "southwest": {"lat": 28.3946486197085, "lng": 77.3055441197085}}}, "reference": "CmRRAAAAvTXxpNZ_GaHnwZEtusJbseZ3LbzOq_6a_uuKVS5f8KY9WgnmPDrW1LHKnttwyBD3rpdX15IOHmxzhCtV2As1PVKQivGe3s8FgG9EPqPAGPmh9jjvcGH3bk4o5nkW7CbDEhASvyb6xex2oWMtvFM0sfTJGhScA4kfZw8yQZXdhctoX18IWv3lVQ", "types": ["hospital", "point_of_interest", "establishment"], "id": "8f038cfb4c5485a71ecc80e0ca3d810997eb4220", "name": "Drishti Eye Centre", "icon": "https://maps.gstatic.com/mapfiles/place_api/icons/doctor-71.png"}, {"place_id": "ChIJG0Onf6LbDDkRLKvD8H0WCVo", "formatted_address": "Jain Colony, Ballabgarh, Faridabad, Haryana 121004, India", "rating": 5, "geometry": {"location": {"lat": 28.3348506, "lng": 77.3240036}, "viewport": {"northeast": {"lat": 28.33619958029151, "lng": 77.32535258029151}, "southwest": {"lat": 28.3335016197085, "lng": 77.3226546197085}}}, "reference": "CmRRAAAAdmed-p_GEA0_qHcQuosx45vyBzcu84nOj4i7EPtS5M_d8gLUXHeeMhofCsP_uHyY_qiyDUJFLvLnJ73jtlXPJ-l6dgtFFdbBjhWB6BGucBFMKmD0GFmJNRHGXkQJfNKjEhCw8zR5u8BlWl3bM2aVMK8qGhRLRKWF_xXUNdpwgkXSR0pe9xDC4g", "types": ["hospital", "point_of_interest", "establishment"], "id": "a034f1752291361bcce8146090c2d235b7b898d1", "name": "BR Memorial Hospital", "icon": "https://maps.gstatic.com/mapfiles/place_api/icons/doctor-71.png"}, {"place_id": "ChIJY7YMLjzcDDkR_stl-QpIbnA", "formatted_address": "5 E/81, N I T, N I T, Faridabad, Haryana 121001, India", "rating": 1, "geometry": {"location": {"lat": 28.3800802, "lng": 77.3044429}, "viewport": {"northeast": {"lat": 28.38142918029151, "lng": 77.30579188029151}, "southwest": {"lat": 28.3787312197085, "lng": 77.3030939197085}}}, "reference": "CmRRAAAA6jgI7xK9oezTUaGTN-ZUH9Mk9kkHNIEeHjjHpJf7rREwPIjHbzDMcGaN_P-pFUsA_HpYEb36jGz10RlqFSdTMFLRTYQP9mi6HdTO10hZAvoJJKJh94-Z2H_Pd696QhdOEhBX8ZpP8h5Y_9tvKD8HgqByGhSjRRmuFdj1OI34Z6eCZ6mlJxIBuw", "types": ["hospital", "point_of_interest", "establishment"], "id": "c295960e92d3960e62e15175534730eb5aa859c8", "name": "Nagpal Hospital", "icon": "https://maps.gstatic.com/mapfiles/place_api/icons/doctor-71.png"}, {"place_id": "ChIJRXudgijcDDkRI3hkU7NEYmM", "formatted_address": "Block N, New Industrial Twp 2, New Industrial Town, Faridabad, Haryana 121001, India", "rating": 3.6, "geometry": {"location": {"lat": 28.3890985, "lng": 77.2898336}, "viewport": {"northeast": {"lat": 28.3904474802915, "lng": 77.29118258029149}, "southwest": {"lat": 28.3877495197085, "lng": 77.28848461970848}}}, "opening_hours": {"weekday_text": [], "open_now": true}, "types": ["hospital", "point_of_interest", "establishment"], "id": "eead3c9fcd65c756a3940615eb07eb931a811d97", "name": "Apurva Hospital", "reference": "CmRRAAAAAgd9iFF1N_Z0IdyyVuOVmqmVPp3uCK7sW6KX2lsEW4OKbQdgeGHzQs-gR4w-iizm_m6zDMhBcdJRvWZ6D2caGlr0t-OIz9HCcLNA6WMJ9l5JRGsOHrqwLpEnLyX-7zxxEhDsRcnzYO8csM3XiB176kMgGhQFeHrlbMZdP6umM8SRgTGpBOuQWA", "icon": "https://maps.gstatic.com/mapfiles/place_api/icons/doctor-71.png"}, {"place_id": "ChIJLQ10kzbcDDkRMfxREPCSCrg", "formatted_address": "5E/5, BP Railway Road, NIT, Faridabad, Haryana 121001, India", "photos": [{"photo_reference": "CoQBdwAAAFhGpioVmmXd2ZFLsAZRDpIROxp-CwqtKwluOh7YUmK30mH9E2T44C0SGo4VAMaCCCU-XX2Fey0fqNXm3ROQeMrnun6KUQpm9MMSGW59xHdov0M4l1zDnE6kRnU9CymOVfdIyqyIJu3YlibSACeGVK8ZNrD8xu2_b6aewe5yt5_JEhAbtIg6TAXdH2bKk4ZSKT4YGhQll1oi6h3KaxXswAHbvS-hj3IC2w", "html_attributions": ["<a href=\"https://maps.google.com/maps/contrib/106104209428588363361/photos\">home concept</a>"], "height": 3120, "width": 4160}], "rating": 3, "geometry": {"location": {"lat": 28.4056325, "lng": 77.30510810000001}, "viewport": {"northeast": {"lat": 28.40698148029151, "lng": 77.30645708029151}, "southwest": {"lat": 28.4042835197085, "lng": 77.3037591197085}}}, "reference": "CmRSAAAAPwHVkkyJNJbz1orpQ94Q86NypZw2PA_DFirljJJUKqRwj-7QHHpqqvVGpyP5X0DYrJuZoLXykQaauuigdjEh9Mk9qrYI2igHAYBtAIZPqkRvCk8_Plq_2lwpZAvSk_SgEhCqZFbqL9dd13ZygO4mfHP9GhTOk_CY16d3uiZx9isHGScg8rzgrg", "types": ["hospital", "doctor", "health", "point_of_interest", "establishment"], "id": "98c81a33f663006c042c98d79552f57570df65d6", "name": "Aster Eye Hospital", "icon": "https://maps.gstatic.com/mapfiles/place_api/icons/doctor-71.png"}, {"place_id": "ChIJF-kUO7DdDDkRvXmKsG9QIPU", "formatted_address": "Pandit Krishan Dutt Marg, Sector-16, Old Faridabad, Faridabad, Haryana 121002, India", "geometry": {"location": {"lat": 28.4131615, "lng": 77.3203273}, "viewport": {"northeast": {"lat": 28.4145102302915, "lng": 77.3217511302915}, "southwest": {"lat": 28.41181226970849, "lng": 77.3190531697085}}}, "reference": "CmRSAAAAY-mg6kCq6HN-T1CrYMFQtGfz5N6jtOv8qnYr1gpqQvxLGng6UX4XjLOD5XWNpGQ2WQsFNymTc1EFBasJeadp1RC9Jfp2cFQgNWkqDZdxRD4jO8lF3YBFVrxq3Njx5p1hEhBO_eEI8KQ4AccSkJ3mgeFKGhTrctyp_Rs783Y_7ehK1ONP9hqdYQ", "types": ["hospital", "health", "point_of_interest", "establishment"], "id": "442a9a3f51def0d2141fdab335f5b799e548822f", "name": "Charitable Eye Hospital", "icon": "https://maps.gstatic.com/mapfiles/place_api/icons/doctor-71.png"}, {"place_id": "ChIJse1E0szdDDkRgxLnvFYKfio", "formatted_address": "5k-10, Sardar Kulbir Marg, New Industrial Twp 5, New Industrial Town, Faridabad, Haryana 121013, India", "rating": 3, "geometry": {"location": {"lat": 28.4020802, "lng": 77.3014845}, "viewport": {"northeast": {"lat": 28.4033988802915, "lng": 77.3028181302915}, "southwest": {"lat": 28.4007009197085, "lng": 77.30012016970849}}}, "reference": "CmRRAAAAJvMBnW_28h5VhKk4drXOgCl_xg4D29Iu4xGA6muV9U4ObPXYFzmZIkUw0CM8xYTA2H9pIoT9icEfVKTL2Ap4vKotMyJrmMs87Guq9gxT_Esa-6go9FxmBDJU4LVI1uYKEhBv1IjD2pQ4Gdk5d_KIRDQSGhQQDogPp1n2y64WHWHBeDW7gwdr0w", "types": ["hospital", "point_of_interest", "establishment"], "id": "cb62133e52fb6db6f04b0a88e5e9af15e5014495", "name": "BK Sharma Hospital", "icon": "https://maps.gstatic.com/mapfiles/place_api/icons/doctor-71.png"}, {"place_id": "ChIJoWkwRaXdDDkRZB_5zxY5jLw", "formatted_address": "2159-2161, Sector 16, Faridabad, Haryana 121001, India", "geometry": {"location": {"lat": 28.4160078, "lng": 77.32110709999999}, "viewport": {"northeast": {"lat": 28.4173567802915, "lng": 77.3224560802915}, "southwest": {"lat": 28.41465881970849, "lng": 77.3197581197085}}}, "reference": "CmRSAAAAwFhhZ6Qlph0vJYaPRLIRlxoyfBGczMqL8lQ93eAiqLDgLsr9sZNuVU2LUclv-c9eiSdLN4h8qpb0cVyQMKWMW6TtLuZ25oQxGuPpVmDv74OS1Au8Q3-thWuGudD3gdHcEhCrFrIBhn8ojlG9ivy6xbXWGhRG8T7h5QpbEwEX5DqRhxxYVSBymg", "types": ["hospital", "point_of_interest", "establishment"], "id": "17829b8526909c90f93a51a8c732bb90137e033b", "name": "Anuj Hospital", "icon": "https://maps.gstatic.com/mapfiles/place_api/icons/doctor-71.png"}, {"place_id": "ChIJq6qq6r7dDDkRlff0I5kQMxw", "formatted_address": "1177, Sector 19, Old Faridabad, Faridabad, Haryana 121002, India", "rating": 5, "geometry": {"location": {"lat": 28.4161449, "lng": 77.3162413}, "viewport": {"northeast": {"lat": 28.4174938802915, "lng": 77.31759028029151}, "southwest": {"lat": 28.41479591970849, "lng": 77.31489231970849}}}, "reference": "CmRRAAAAQmkhOqQ8CXpPJ8fxwwtDCesQGpduIhOpTA1BsVUMqimwmrKkZ9_bup4FjIVvn9MNZ3m0op7foBwXIVm0VaTrux0CjEWrHd5eJVjHeUkknN9d5XfEHWFW-unVdbW-pOG-EhCQsUj2jIHY0IOhssHcabTCGhTtW4TEl-rgj2WozP3NPpVzGFwOCQ", "types": ["hospital", "point_of_interest", "establishment"], "id": "4b41197baa5910db81b495b85249f4d479a0a87f", "name": "Chandravati Child & Maternity Hospital", "icon": "https://maps.gstatic.com/mapfiles/place_api/icons/doctor-71.png"}, {"place_id": "ChIJbXBNEMfdDDkR6zsKusyMCp0", "formatted_address": "8, National Highway 2, Friends Colony, Sector 20, Faridabad, Haryana 121001, India", "geometry": {"location": {"lat": 28.417557, "lng": 77.307484}, "viewport": {"northeast": {"lat": 28.4189059802915, "lng": 77.30883298029151}, "southwest": {"lat": 28.4162080197085, "lng": 77.30613501970849}}}, "opening_hours": {"weekday_text": [], "open_now": false}, "types": ["hospital", "point_of_interest", "establishment"], "id": "5fe6e8ff87d09444248c7f9fc620df99ab345107", "name": "Carewell Hospital", "reference": "CmRSAAAAhx7vMx2vyyhkvZynTdZG-QM1gW_EV5tjnm4ajYE5146uEUU83KOvKzxXdCfLj2y78jZ3QEa-97I100qhgtOzVQmJoumcPxW9awKDikeuO1DWKFvjUgof60XRUJ839gwPEhBTHMcSwjx172f0FgyStS-VGhTJuyIxBGYA3FQSmLg_AoD5LE3Rwg", "icon": "https://maps.gstatic.com/mapfiles/place_api/icons/doctor-71.png"}, {"place_id": "ChIJ9T1YwP7bDDkRNfffxYYAHXQ", "formatted_address": "Block F, Sanjay Colony, Sector 23, Faridabad, Haryana 121001, India", "rating": 5, "geometry": {"location": {"lat": 28.3506624, "lng": 77.2909708}, "viewport": {"northeast": {"lat": 28.3520113802915, "lng": 77.2923197802915}, "southwest": {"lat": 28.34931341970849, "lng": 77.2896218197085}}}, "reference": "CmRRAAAA_-z1vKdnXqqY0qSrpUo1kWrjVtMc0FmWGOa8ZgmR-Xfe8XmP2PkCDYKjZ2f5NZYTUoAr7E07ui1NNqnyZlfNIa5SeBAgOjYNtdvSQNXCcFYfV0B5nF-Zbdpl2oZQ-7PsEhAfjCI6tJmfif1Jhd1yBiUaGhSberbpqJGWu6yKZm0xjk8iIt8Kag", "types": ["hospital", "point_of_interest", "establishment"], "id": "49fa8deceb65be19ee9ad77f2ea10af5c066d859", "name": "Jyoti Hospital", "icon": "https://maps.gstatic.com/mapfiles/place_api/icons/doctor-71.png"}, {"place_id": "ChIJVfOTGJLdDDkRhJ0vojBPMqk", "formatted_address": "Opposite Sector 28 market and Community Centre, Sector 28, Faridabad, Haryana 121008, India", "photos": [{"photo_reference": "CoQBdwAAAJGr-0xJXKPTWfElWMiV3G89o3cxJgo5NocAlMXA0DwHKZBiPJyhqRKVEIfRXLI6LxXoXN0daZ_HqdhUV6AO1wumPVmVjepjlcpzaUIeOSz_0P2BzqwrcVNLjsdFeWEPLye17nOqZ0ojlUa_IBIst_JHZhonBjYxRatD9bYEkXjqEhAe6So1lSUTIomdnpzY05FhGhR6gjFfeCUs0_yTqYWQa8BXOjvHpA", "html_attributions": ["<a href=\"https://maps.google.com/maps/contrib/108213697473216214128/photos\">Geeta Hospital</a>"], "height": 2048, "width": 2048}], "rating": 4.4, "geometry": {"location": {"lat": 28.436277, "lng": 77.314508}, "viewport": {"northeast": {"lat": 28.4376259802915, "lng": 77.3158569802915}, "southwest": {"lat": 28.4349280197085, "lng": 77.3131590197085}}}, "opening_hours": {"weekday_text": [], "open_now": false}, "types": ["hospital", "point_of_interest", "establishment"], "id": "09e421706bc5f25509c5b39d3c3c805a3a838818", "name": "Geeta Hospital", "reference": "CmRSAAAAJkFlLtviJ_CM0tGrzlwe5ddF02cTmCVnUpvcz4cFbJLU9Qxd_7VTCWijpagWVUIDlginECyfdK3J_evqP1-BWtdQ7BYIT7M3xXn7WqrnCM0muGgXxiPNRRp4hwl6RBWfEhCFJMi4swXOus3pyw7OQrekGhR5m1yhArLo_O_00ybVfQRjHiELWg", "icon": "https://maps.gstatic.com/mapfiles/place_api/icons/doctor-71.png"}, {"place_id": "ChIJq6rqfFD7DDkRq5E40IMYbeo", "formatted_address": "21, Community Centre, Preet Vihar, Delhi, 110092, India", "photos": [{"photo_reference": "CoQBdwAAAHPBa_sMHz0hHPhNlGQXKIfZxqCwZc6vT2qRMvBxUOSJ_xHMnosr28c_zaUtlxXC_EqsDgBOew1Tsw2uWNdSQRqr6LZmQU_xm5K0Csw_-hAgBt4KvaMQiX8KPA-uQJHVOaDbrX8LdUE0rn6NwkwDS2kkJFRtv5NQ6j7v3r6cLq7VEhCuMg7ZdrYoennTnROFwMy4GhSboTZaCPoBeRjgM9v4_Fu8RRf0zw", "html_attributions": ["<a href=\"https://maps.google.com/maps/contrib/108971381338076622239/photos\">Metro Hospital and Cancer Institute | Best cancer Hospital in Delhi | oncology hospital in delhi</a>"], "height": 516, "width": 1280}], "rating": 2.8, "geometry": {"location": {"lat": 28.6384762, "lng": 77.29485880000001}, "viewport": {"northeast": {"lat": 28.6398251802915, "lng": 77.29620778029151}, "southwest": {"lat": 28.6371272197085, "lng": 77.2935098197085}}}, "opening_hours": {"weekday_text": [], "open_now": true}, "types": ["hospital", "dentist", "doctor", "health", "point_of_interest", "establishment"], "id": "479e37c0acfc1580dd5f314343a08d4f92855805", "name": "Metro Hospital and Cancer Institute | Best cancer Hospital in Delhi | oncology hospital in delhi", "reference": "CmRSAAAAFkkU1Qy5Y0Fbck-ojragZTj2c7qRw3lxLCwFI2ifC0jWCYz9Zbh3AXvnIjJDDqNWJaZ00t4uztNi1PoThKDSmkoYoZxi3EjPPMxyHwFwo483v4vLhEn6AdWMsvLnNvyWEhDQ3J9KOq752bdUo7TEFKgqGhRqvfIoW3FUTzmKpiHVHuRuMRcs4g", "icon": "https://maps.gstatic.com/mapfiles/place_api/icons/doctor-71.png"}, {"place_id": "ChIJjZwhtQjcDDkRKlwsUaFdNhA", "formatted_address": "Shop No 940, Main Road, Sector 23, Deep Chand Bhartia Marg, Faridabad, Haryana, India", "rating": 4, "geometry": {"location": {"lat": 28.361286, "lng": 77.29925399999999}, "viewport": {"northeast": {"lat": 28.3626446302915, "lng": 77.3007313802915}, "southwest": {"lat": 28.3599466697085, "lng": 77.29803341970849}}}, "reference": "CmRRAAAAl3sGkFuJ83oXD-OefWMWp9qZbBkwPNpi0HuDJ4VinZj3czJuMH-kdLSKAU5-DQF5InXviJo2_sKlIrCEFRDLXmLRxZSUdVoK3pw-m0lOs9uq149_RzELrAfIC7fgwdz0EhBqdTUVrt4b5HQvlzLNX6ubGhRUSelpNA4JEtHZyzfgnDEIwbp1vw", "types": ["hospital", "point_of_interest", "establishment"], "id": "5ae0cc309a1b6d69d8c943f64fe84d77e6d780e9", "name": "Pulse Hospital", "icon": "https://maps.gstatic.com/mapfiles/place_api/icons/doctor-71.png"}, {"place_id": "ChIJRUCklTLcDDkR-6nXHv5LTfk", "formatted_address": "L Block & M Block Rd, New Industrial Twp 5, New Industrial Town, Faridabad, Haryana 121013, India", "geometry": {"location": {"lat": 28.4000151, "lng": 77.2992064}, "viewport": {"northeast": {"lat": 28.4013617802915, "lng": 77.30054658029151}, "southwest": {"lat": 28.3986638197085, "lng": 77.2978486197085}}}, "reference": "CmRSAAAAxd2NxQNrxNYLzJAcFygQVYmrjQVu7Xxn78NjqxLT9IE7rRjNxz8XIou5F_BA51tKC2FxrjZRD8LwoGtxsCgW1Kn8mr7FqNtNfLWrXeFy7mfPL_7r6SYODyrXTT0_e6nxEhA6pf8z5eT5-rTEDBPRB-IbGhTca3AT554Dm6HmcVSQz72of_qv0A", "types": ["hospital", "point_of_interest", "establishment"], "id": "29e5a637697abcaccfcb9abcdb5006fef30064d1", "name": "Medicheck Hospital", "icon": "https://maps.gstatic.com/mapfiles/place_api/icons/doctor-71.png"}, {"place_id": "ChIJ5V2kqoHbDDkRA44f1kMTS7E", "formatted_address": "H.NO.1896, Chaudhary Charan Singh Marg, Sector 7, Faridabad, Haryana 121006, India", "rating": 5, "geometry": {"location": {"lat": 28.355542, "lng": 77.32960299999999}, "viewport": {"northeast": {"lat": 28.3568925802915, "lng": 77.3309928802915}, "southwest": {"lat": 28.3541946197085, "lng": 77.32829491970848}}}, "opening_hours": {"weekday_text": [], "open_now": true}, "types": ["hospital", "point_of_interest", "establishment"], "id": "739abd30c2becc5059ce03f99afb5e5d2252d2a7", "name": "Sanjeebni Hospital", "reference": "CmRSAAAAhVSagHEWb3jBuUAZuvOCw-58D2Wc6Kkk9He33jl6uH8tc_rI6OFA38C4irrGH642ehHwEETMlqAJSEhwyvttnoMtpM6h0cX0JvpGIZnv_AA-yAeGxd0oaqxFcu3GExioEhBv67frjl5KNUGQzO1xMICjGhSrJra67xXi34yl9LiURm0XQeMVWw", "icon": "https://maps.gstatic.com/mapfiles/place_api/icons/doctor-71.png"}]}