{"status": "OK", "html_attributions": [], "next_page_token": "CoQC8gAAAMw8MKoy2RTnm379y5Ro1Lpqija7rgSIbDqerFLjLVms0awB-kNldYeJn-GLF0QUbBnr9HytVN17qK__F3LMFvgTeupLabqn97t2s4Tz42jiK8Mi1JyjFULQrUudtU5j04r4cYGXR7jKE4HXthU4iRXoEwJZ0TIeNokfTmeZYEcw9ZdrmIXcTJ940hgXifXS2ZX2RET1e6vdC_II47FT31OWUW6NqvvueSBLg4sE-yeRmsSa9tq-b9n__6gHvCHmOasmcFKu8tpASXdPL5EBbLTgZDeLTpLFTL-B7oWvhkBAdXe7OKcB7gUg6ydYQzKq22SPz-JBxsjuTnAF79YykUASEBzj3HgsI1SHc4b-G0McJO8aFANInASVpIm_yZZchkLBjHiDIhGe", "results": [{"place_id": "ChIJM86MWaOFDTkRXyjlCQFwSfs", "formatted_address": "Gohana Stand, Company Bagh, Rohtak, Haryana 124001, India", "rating": 3.6, "geometry": {"location": {"lat": 28.8995267, "lng": 76.5844019}, "viewport": {"northeast": {"lat": 28.9008756802915, "lng": 76.5857508802915}, "southwest": {"lat": 28.8981777197085, "lng": 76.58305291970849}}}, "opening_hours": {"weekday_text": [], "open_now": true}, "types": ["hospital", "point_of_interest", "establishment"], "id": "7036453aff4b35ebc621dc84818a9b1e77c951dc", "name": "Civil Hospital", "reference": "CmRSAAAAFoU41ZVUPINnIkpVVT00oNNRTLVs0r9tJrhrXPoGXibRcPD2490qHLjiABngLxyghJpX44Qn0Z_dVNGnTAc-DP7mchqZ3p77miB9obVFwEcofT6faq0Dyi6KqVzd9sxVEhDHL6x3h4UHvtpVtbXmALclGhQzOl5VJ65ThekeHsAmlfqWMDpf0g", "icon": "https://maps.gstatic.com/mapfiles/place_api/icons/doctor-71.png"}, {"place_id": "ChIJI5Zros_sDTkRjh4MACe0STU", "formatted_address": "Near Gajraj Hospital, Opposite New Bus Stand, Rohtak Road, Gohana, Haryana 131301, India", "rating": 5, "geometry": {"location": {"lat": 29.132023, "lng": 76.7014377}, "viewport": {"northeast": {"lat": 29.1333719802915, "lng": 76.70278668029151}, "southwest": {"lat": 29.1306740197085, "lng": 76.7000887197085}}}, "reference": "CmRRAAAAEY8nJPLysXtD9EXY29h8EBoE6jpp81H8d06K9tj7mH_f2BAhyA4ZKYEBt8UujSL0asT7PVnlDrxuFfnYr-EVtxy35xpV7ZGof9S8FkkogPvjKwp5XIxOsB4VV9-w-TL6EhBvJywHTRMKvMgXYLn6o7RqGhTL-nxIkJdWNJ8vMbj-YyLpa1xkSw", "types": ["hospital", "point_of_interest", "establishment"], "id": "a46719c6b41c890216821dec6b65f7ff647721d7", "name": "Eye Q Super Speciality Eye Hospitals - Gohana", "icon": "https://maps.gstatic.com/mapfiles/place_api/icons/doctor-71.png"}, {"place_id": "ChIJq4AFoaaFDTkREL3uNs6PRNw", "formatted_address": "Company Bagh, Rohtak, Haryana 124001, India", "rating": 4, "geometry": {"location": {"lat": 28.89827320000001, "lng": 76.58957749999999}, "viewport": {"northeast": {"lat": 28.89962218029151, "lng": 76.5909264802915}, "southwest": {"lat": 28.89692421970851, "lng": 76.58822851970848}}}, "opening_hours": {"weekday_text": [], "open_now": true}, "types": ["hospital", "point_of_interest", "establishment"], "id": "de2eb9471fae9eb6ce3adbd2256cd69d33d919f3", "name": "Mann MultiSpecialty Hospital", "reference": "CmRSAAAA6fp-TEIX5YcJmPl5_X1YUkXu0l7o5CiWe4l96bPb1Jed5yWocuwzChQlHc0nx3nAsDnV3XrYx6eKk57MztZVQ271eo7bqjUME_RU5g37RU1TVSYs39j3MIHthEhd-p3nEhCZmyxerB6IwIIbOT942QS-GhS9Vf9tE_1C8lk4-r-PRFDPp5brVA", "icon": "https://maps.gstatic.com/mapfiles/place_api/icons/doctor-71.png"}, {"place_id": "ChIJITTNeqaFDTkRyMkF985T00A", "formatted_address": "Civil Road, Arya Nagar, Rohtak, Haryana 124001, India", "rating": 3, "geometry": {"location": {"lat": 28.8961196, "lng": 76.5902091}, "viewport": {"northeast": {"lat": 28.8974805802915, "lng": 76.59156353029151}, "southwest": {"lat": 28.8947826197085, "lng": 76.5888655697085}}}, "reference": "CmRRAAAABgqqPCG3tKuYe_938I2xcRCGnh7A26GBgyHyVIimQ599DYT7aNYy_66rFyP20iieYjeoACLMSb4RO43gL8BAdXqrlzycxSxkCP1x1mM5JitWRnafgFg43eZiKvEcYlK3EhAGwNeHG8oTd1gNbowPHh3SGhRefYcpwpNi_OUfi9lrHiChnbJGgA", "types": ["hospital", "point_of_interest", "establishment"], "id": "aa8e00c2b4044bb6f5639d193db754780e81f3f0", "name": "Malabar Hospital", "icon": "https://maps.gstatic.com/mapfiles/place_api/icons/doctor-71.png"}, {"place_id": "ChIJNZBZJQiFDTkRHvryFpsY9JY", "formatted_address": "Rohtak-Sonipat Rd, Durga colony, Rohtak, Haryana 124001, India", "photos": [{"photo_reference": "CoQBdwAAABKfESOHLPeePNEtd6E6vRcidIEet1lBMuxhcdyI4YuC_5D3RkWknhn9p3Yb7Fcjh8XKkyQjA-amDGGxzjLeoJ8DpqZI34Z5d4b5lBVrALoj6VpFoU5dIEgYDfYLacWd8_sKVU8SQs1QWhVvICBSNKjoWXWYI63-SHZLEyH_mlI4EhAkpPQJmtIigKpD9P5IKc5cGhSO7uXayqZxqGG6wrFDcvxoY-vWSw", "html_attributions": ["<a href=\"https://maps.google.com/maps/contrib/100467350361267844158/photos\">Udit Bhardwaj</a>"], "height": 2448, "width": 3264}], "rating": 4.7, "geometry": {"location": {"lat": 28.89654199999999, "lng": 76.5957248}, "viewport": {"northeast": {"lat": 28.8978686802915, "lng": 76.59707713029151}, "southwest": {"lat": 28.8951707197085, "lng": 76.5943791697085}}}, "opening_hours": {"weekday_text": [], "open_now": false}, "types": ["hospital", "point_of_interest", "establishment"], "id": "e1b19347437b34cc2af15ee8861a1421ae7a27d7", "name": "Ganga Ram Hospital Rohtak", "reference": "CmRSAAAABgBH3PfWHjcEA4gqgs0iayI7RhBzgnsWE3iNEPT8s0B7Y0F47KUfPYMMPYaPfOP6G0qF9jugFSTROc_dd7jHDtyQwMgEk7F_T8O_XNLz0jOTQsZ7bRGPAP8PBFFaToJqEhAHyg5zYuJz1FnPhlQs1yrsGhTBqkwljNtGER2HKWs6IztWx2NE0w", "icon": "https://maps.gstatic.com/mapfiles/place_api/icons/doctor-71.png"}, {"place_id": "ChIJbZfMAR2FDTkR9C0aTlB5L7A", "formatted_address": "UH2, PGIMS Road, Dariyao Nagar, Rohtak, Haryana 124001, India", "photos": [{"photo_reference": "CoQBdwAAADndl6XaWoBVYX6Y4XqNBXtZGjzp49_5JDLa8w53FfODM0Gj1UiXc1MzCMbcpN-GXYQKb-Z1whQyVUsUAEQO9Zc6kj9mWQkWIyPN1RL5ZKsnfhuUF0CtqWbPwo23qwupDhkm8wVhr6MXYo_D8K1NS7ipdJqDg4G62o2BdLbYuloDEhCtaXfVpFrSQ-QoHVUdX8elGhSjEWN4ihcoID_qah4YnL8Rf5h0xw", "html_attributions": ["<a href=\"https://maps.google.com/maps/contrib/110371462245546950677/photos\">Shivam kumar Bhar</a>"], "height": 2304, "width": 4096}], "rating": 3.8, "geometry": {"location": {"lat": 28.8871504, "lng": 76.60931269999999}, "viewport": {"northeast": {"lat": 28.8884564302915, "lng": 76.61073068029151}, "southwest": {"lat": 28.8857584697085, "lng": 76.60803271970849}}}, "opening_hours": {"weekday_text": [], "open_now": true}, "types": ["hospital", "point_of_interest", "establishment"], "id": "bdba2a9ed304f970a37092d612a3c5f07abbe8ee", "name": "OSCAR SUPER SPECIALITY HOSPITAL ROHTAK", "reference": "CmRSAAAAinssRMmfjHOKTA40JDu8m5yzqJfWRU9MzBTbyaSK81BW4rhamTifJPUolLcqganRaWEabdkRzVhNYT8gTytrb6RBtzSbyzaEpPRrGHE1-EZs_eqZE3GIoh-mC34IoPdZEhBWD7cWU0fT-Vis6DCLBQz7GhRnZA2q1psKRwGWfeyWEMwAuyMjhw", "icon": "https://maps.gstatic.com/mapfiles/place_api/icons/doctor-71.png"}, {"place_id": "ChIJhXE6Kh6FDTkRxQnRvzw-gUs", "formatted_address": "Sonepat Road, Opp. Rivoli Hotel, Near Shiela Bye-Pass, Rohtak, Haryana 124021, India", "rating": 3.2, "geometry": {"location": {"lat": 28.8852868, "lng": 76.6145842}, "viewport": {"northeast": {"lat": 28.8866357802915, "lng": 76.6159331802915}, "southwest": {"lat": 28.8839378197085, "lng": 76.61323521970849}}}, "reference": "CmRRAAAAasOpaZcpSjnV788L5wAx3Pum1jxh2O-1Ixtk__cKAWpVmV2PtZTGjtQEIhs4-Gumj8NNk0p6GpYqPnaMJk7HJyUKol2tYdvUykDBnUKShUf-g9fxf9lzhzbfEs9rNobuEhBAQR563i00CK0vaSfx_ZIXGhQM5K6UAXzM8jgObsrC3bZH2783Fw", "types": ["hospital", "point_of_interest", "establishment"], "id": "4eb802f963faf3eb943ebd73d134e9ac208ff889", "name": "Sunflag Superspeciality Hospital and Trauma Center", "icon": "https://maps.gstatic.com/mapfiles/place_api/icons/doctor-71.png"}, {"place_id": "ChIJ_____3gEDTkRXQItlIpQxHU", "formatted_address": "A-1/7, Paschim Vihar, Main, Rohtak Road, Paschim Vihar, Delhi, 110063, India", "photos": [{"photo_reference": "CoQBdwAAANH2yphtMoUb2QWtYDXG4zqhqVwNrFmmU4a4L6jfxTsxvnFOhRXcSJejkQST3XwEF2Ngp_vVeDuGtFIe-X2zrLFE6A54mistW7TCYMu5_fx7JL6XIbR9fyCAI9F0MyydNNtcGitdkz1jLkJG0QTrE6a6evfKt0cKF57kJEOAoC5GEhAnfTbqs0OMFfaj9-BiNgOEGhQiLg6Vcp6DNFCftOF1j0LQjVQLVA", "html_attributions": ["<a href=\"https://maps.google.com/maps/contrib/114682481725462867633/photos\">JAI GOVIND SINGH</a>"], "height": 720, "width": 1280}], "rating": 3, "geometry": {"location": {"lat": 28.6787823, "lng": 77.0980098}, "viewport": {"northeast": {"lat": 28.68013128029149, "lng": 77.09935878029151}, "southwest": {"lat": 28.6774333197085, "lng": 77.09666081970849}}}, "reference": "CmRRAAAAFjkFixgEk9AQmuVdWcCRlWH3aLvm3ANoltkID5n9tbaZzFdkEwwlCLjWA2NQoe748xsH8nXbXnYSj9knEsGRIIE7LbGEGBvKNthiebYkP_ykmOZRoZSFdQX_6DbSJ_GyEhBTzsKbGhCTsBl4yPdgZ7UOGhQnEs2-CM9GfPMPdKWx-i9ugBFYcQ", "types": ["hospital", "point_of_interest", "establishment"], "id": "0943cd5f78231bf80c2eed0776fd8ed689780f81", "name": "A One Hospital", "icon": "https://maps.gstatic.com/mapfiles/place_api/icons/doctor-71.png"}, {"place_id": "ChIJsTGo27oDDTkR0QcP1Ai6MSA", "formatted_address": "Rohtak Road, Punjabi Bagh West, Delhi, 110026, India", "photos": [{"photo_reference": "CoQBdwAAAOZCl4SbOO3JWVEHvH0Iudewvuyygo3XkDP2kh86G2kcIACJPuGtlXTEhLSoNiWOyiFwtgsZzqgeRhRmwLupy8cYLDxyQWhQGgo6OpH3yAmpZxXJ1KSium4_IYZPg3wa_a1BVSYVigxw9kjDRLbiwmdawmYq-gzP1jsFIVWbtLSiEhA4waq362RoJa9SUp5Bx0ulGhRGzvfcPImo8ARUKW9VqKF-f7kuWA", "html_attributions": ["<a href=\"https://maps.google.com/maps/contrib/105856926473673588735/photos\">Ranveer Singh</a>"], "height": 976, "width": 1632}], "rating": 3.1, "geometry": {"location": {"lat": 28.6737106, "lng": 77.1346295}, "viewport": {"northeast": {"lat": 28.6750595802915, "lng": 77.13597848029151}, "southwest": {"lat": 28.6723616197085, "lng": 77.1332805197085}}}, "opening_hours": {"weekday_text": [], "open_now": true}, "types": ["hospital", "point_of_interest", "establishment"], "id": "9dc2400ca9d9e1e1c1e5f4374db05893f2af1b7a", "name": "MGS Hospital", "reference": "CmRRAAAAITWvfbZFBCc-L8FUaGEMU0ZJZ9VI8V46DsIrCIudlT_VPjcIhN3swYDqzex0HyynD2hXU2C69nMzM485W-deJCo7SjQIffMafUOhx5XXCCw6Qu6Svcpy1e9UjkTEd1CkEhDB70HW1pEk3OkTj2sppJXtGhRHXCeKbXN2I8WYRHmHUDaRYx_Y9g", "icon": "https://maps.gstatic.com/mapfiles/place_api/icons/doctor-71.png"}, {"place_id": "ChIJD5t8gYICDTkRY7UJx_2vzQA", "formatted_address": "2C/14, New Rohtak Rd, Block 66A, Karol Bagh, New Delhi, Delhi 110005, India", "photos": [{"photo_reference": "CoQBdwAAACplt5I6YkUUymP-Aae5bsWYjwYSeWDNRwo_yZncNuV25WXt5z2v2P8BF7oyNzM2UPaDPneL8fv4sgUSmDnaRfN5uo2NtR1Q2Sxw7RUTY8FiRs6TBwax0vIsydEdoWO3r1o2HEMqt8DuNgMlntt0BiHpvMDkw6QDfVi2UnuuUTW-EhBEV180aJXLAwcx03MDQaQ0GhTlEi7CoUB-7vJ_S-MS4wromasghQ", "html_attributions": ["<a href=\"https://maps.google.com/maps/contrib/107977262746173598990/photos\">Punit M</a>"], "height": 2592, "width": 4608}], "rating": 3.8, "geometry": {"location": {"lat": 28.6578766, "lng": 77.1944753}, "viewport": {"northeast": {"lat": 28.6591639802915, "lng": 77.19578213029149}, "southwest": {"lat": 28.6564660197085, "lng": 77.19308416970848}}}, "reference": "ClRQAAAAF3L0uJfAmfZVpeVJ0DT5csAidUV3qPqLTS-kpboFY32M_nXMCnh8OEmjCBYVnIAQMTYBzq1s74xI7BbzNJB3hLRgU4Fxh7_B0Si-7YKAj7YSEAQU688ULRovKShCE52DWGQaFErizJ8FbTzRvCPQk-1r_72c7mvc", "types": ["hospital", "point_of_interest", "establishment"], "id": "ddec94d9420545cf24fd1de53c5bc88e0118e045", "name": "Apollo Spectra Hospitals", "icon": "https://maps.gstatic.com/mapfiles/place_api/icons/doctor-71.png"}, {"place_id": "ChIJzcKynQWwDTkRVoeHhCHubYo", "formatted_address": "Industrial Area, Rohtak Road, Near Hindu College of Engineering, Sonipat, Haryana 131001, India", "photos": [{"photo_reference": "CoQBdwAAAJv5ZdxTSTucxAUcw2nUKp_nzQudfYLGh2hC6i4spLW9rby-45J_wD4vgJWekKfvbyH3kcdhyzxVmaYBT-Bx8gmSuTQSXaJyU47o-7pP46_Ze8C3gm-L5eluaxAI71XfdGGpaTsDYm0LbY7Oz3xMDeAkG7z1XQd7XQM2KNsYy__HEhASDQrT0s6210g5K3PH7NgGGhRsFqeduVf4oOkRyZn-x-pfOHSvBA", "html_attributions": ["<a href=\"https://maps.google.com/maps/contrib/110797800701358088769/photos\">RAJESH KADYAN</a>"], "height": 4608, "width": 3456}], "rating": 3.8, "geometry": {"location": {"lat": 28.98122119999999, "lng": 77.018958}, "viewport": {"northeast": {"lat": 28.98257018029149, "lng": 77.0203069802915}, "southwest": {"lat": 28.97987221970849, "lng": 77.01760901970849}}}, "opening_hours": {"weekday_text": [], "open_now": false}, "types": ["hospital", "dentist", "doctor", "health", "point_of_interest", "establishment"], "id": "90cf7fe87d3e870cf08c0dd6949bde7813af2e4e", "name": "Cygnus J. K. Hindu Hospital", "reference": "CmRSAAAAEId_PR-ALuXR3wNkB1X_6BFGkBHnHP1Pj6DFiorbCpBap7hJKXomV8SkFHtphGiieOhOPmeslRF_WkU0TR_dHaa7JPPykoImzueZfh_xuhC6arixhnkRkGiF2R9nSCI0EhCY-CulZPFf4OS8Srxa3n5oGhTpe6x389y7Gs2QNwa02uih3N6qMQ", "icon": "https://maps.gstatic.com/mapfiles/place_api/icons/doctor-71.png"}, {"place_id": "ChIJ-5eZc8wFDTkRWbyZG0YAiUw", "formatted_address": "1, Gulshan Park Rohtak Road, Nagloi, Delhi 110041, India", "photos": [{"photo_reference": "CoQBdwAAAKeMICSM20_HWCvWg4eZqkSvOxTm7vT1pt1-EGv4A0S6m0mCrZdOwprd9Lknu1FcYwhqYzL4GyQVJjZUH7lUjEtuOJlMKXmqneDYdRtTzl_x2Kf4U_L8oVgVnmBGo8XCGrVmmz0zdjmvs6lQk1eDhfSaT4bbXs1NkcrTJLYFyAR1EhBCwRcDpIDojGgpWzNNqt46GhTIWXRoJVTwZv6bhk_gojSzxsPa7Q", "html_attributions": ["<a href=\"https://maps.google.com/maps/contrib/107934223758146631180/photos\">Lalan Pal</a>"], "height": 1920, "width": 2560}], "rating": 3.3, "geometry": {"location": {"lat": 28.6823184, "lng": 77.0523233}, "viewport": {"northeast": {"lat": 28.6836673802915, "lng": 77.05367228029151}, "southwest": {"lat": 28.6809694197085, "lng": 77.05097431970849}}}, "reference": "CmRRAAAAv6nSyi91_A8n18AgjDkESfOvexuOFEZwiYCdbUaGmm07e5_zDkAr_QUoeltqp7EZWzSk-BY8UfR1-dPGhK9pGXhjVBY9SbAqfAmo6jan0XaUO3N4OZPXCjHJMrmHIa1tEhAQ6-UwAfGuCqA8XVlgvz9mGhTZ83xICEKyW9V5Oxyi2EYOlWZVVQ", "types": ["hospital", "point_of_interest", "establishment"], "id": "bf114d8511d2e4f280b393e86d02c1fa06eacd37", "name": "Cygnus Sonia Hospital", "icon": "https://maps.gstatic.com/mapfiles/place_api/icons/doctor-71.png"}, {"place_id": "ChIJK8kE_EoJDTkR0TBqHRbhEIE", "formatted_address": "Opp. BSNL Exchange, Delhi - Rohtak Road, Ram Nagar, Bahadurgarh, Haryana 124507, India", "photos": [{"photo_reference": "CoQBdwAAAGHGfJjvxeO3b93pTQC30Ufx-e3yXWnQTWWtsHNvry_-SrmzYD2m0SOWlLoAuR-ENaKNRvpA8TIJFy6svlF5nEB2Tdh09iMrwQHBZfid4SSVRJgnGxJHqMH1O8UNjXXEa9uXViyitzR3MCV8rahnhiDhFFD2BGXGUJ_s7qhhP5kJEhBVMdK06bOcAdV19Yb21aMOGhRLk8Sb_4-VQozuU6gWc81qvW_ktw", "html_attributions": ["<a href=\"https://maps.google.com/maps/contrib/109929930419973241670/photos\">Parveen Vashist</a>"], "height": 2592, "width": 4608}], "rating": 3.9, "geometry": {"location": {"lat": 28.6906, "lng": 76.93869509999999}, "viewport": {"northeast": {"lat": 28.6919489802915, "lng": 76.9400440802915}, "southwest": {"lat": 28.6892510197085, "lng": 76.93734611970848}}}, "opening_hours": {"weekday_text": [], "open_now": true}, "types": ["hospital", "doctor", "health", "point_of_interest", "establishment"], "id": "ad7a6d46ed24567db73ccb118e523a4e566fe35e", "name": "Brahm Shakti Sanjivani Hospital Cygnus Mangus", "reference": "CmRSAAAA5bAt-27kzfN-Y8NzDAlL675dG-lgjIBoHgEYQ2iqAwSLFNeQdOEoZ7QJxozEUPR4HtMUgvRlOcZr9Zew5exkFihpcJELs5z9K72c0Qq7mzrLfvnBhO3nqcWpM6LkM5zDEhB3O1mY1JUrBqDN7aV3wHLVGhTy_SWAVFIWOBo92dZ9aLTwMuYEAg", "icon": "https://maps.gstatic.com/mapfiles/place_api/icons/doctor-71.png"}, {"place_id": "ChIJ_3Fc--2FDTkRUY6BzBOexnc", "formatted_address": "old Sunderpur Road,, Near Jind Bye Pass Chowk, Rohtak, Rohtak, Haryana 124001, India", "photos": [{"photo_reference": "CoQBdwAAAIh09UKhSkcWvZaJhhfuuDuz60rb8V8cqUSBZyS-HECMIbuaa2nRJLa8nFugfZFRr1h5ERtq01X1qQOkQkBJ9d-HYbwAKCRu3-IHB7C_OZUSRcHb1oeaz8OUH8MvFhjAkqo5GrCEmX91RG2N9cH2P4-x4hpEvzLWssMLwXEWZhJyEhA_4Yoy1yQaFQ4wFLyWxpFfGhTs7lgAvsztXj4ErHHu60sY0PlLRg", "html_attributions": ["<a href=\"https://maps.google.com/maps/contrib/116839547239901909975/photos\">J.R. Kissan Homoeopathic Medical College &amp; Hospital Rohtak</a>"], "height": 498, "width": 499}], "rating": 4, "geometry": {"location": {"lat": 28.913164, "lng": 76.56648799999999}, "viewport": {"northeast": {"lat": 28.9145129802915, "lng": 76.56783698029149}, "southwest": {"lat": 28.9118150197085, "lng": 76.56513901970848}}}, "opening_hours": {"weekday_text": [], "open_now": false}, "types": ["hospital", "point_of_interest", "establishment"], "id": "d75ff1b73a33ccdc09f6a3dc6fe194c62710d5f9", "name": "J.R.Kissan Homoeopathic Medical College & Hospital,Rohtak", "reference": "CmRRAAAAtDyZ8icsrrKz8sRPayaCP-Igv6Z199zpOm2qyB1CB2o6pd_SEIq2_P-th-shgzj3oU73d8iiPKtO-We-Nzs6WuQ6fKO-BvgNnihB4ddQUXtrqqKSbXfRgATZqfyHH0FCEhAo8a3mwXMOjfW9qMXhbEKMGhRgn_u8bs0jmSunDgssxrSpQxTdDw", "icon": "https://maps.gstatic.com/mapfiles/place_api/icons/doctor-71.png"}, {"place_id": "ChIJR9RGuzkEDTkR5pnTlHCJOvo", "formatted_address": "Rohtak Rd, Arya Mohalla, Nangloi, Delhi, 110041, India", "rating": 3.7, "geometry": {"location": {"lat": 28.68180880000001, "lng": 77.06995839999999}, "viewport": {"northeast": {"lat": 28.68321953029151, "lng": 77.07130833029149}, "southwest": {"lat": 28.68052156970851, "lng": 77.06861036970848}}}, "reference": "CmRSAAAAG1cFh6xN2MetvfXOVJA9oSQuoLsFoXXlOe21bZc0D6bh7mv9OR_6opm0I_ucmn1Jk98oY-YbdEM3ww8f3k7rnK0mEoJNDr7P1vhKmLCDEFSjJLrtbNrBhNL9g8E59NXpEhD5a7NMFSVmSdCioEarNOmoGhSEIB4Dtf4Zpzcq_Q-Mt_stEP1nNw", "types": ["hospital", "point_of_interest", "establishment"], "id": "c337f69af6e1bd14344215f82adc6f5d044fce22", "name": "Bimal Hospital", "icon": "https://maps.gstatic.com/mapfiles/place_api/icons/doctor-71.png"}, {"place_id": "ChIJH651JGebDTkRv4MiXnrjDis", "formatted_address": "Karor Road, Kheri Sadh Bypass, Delhi Road, Rohtak, Haryana 124001, India", "photos": [{"photo_reference": "CoQBdwAAAI2BHT0YmKnSRj6zV2XfQRoSgOXBE6QVuZU_ddLaJJQfKd_VvAqt1Qtii78uiyT6OiI5PHJbKCoX9jt2cMsxQ9Rw7ysTY0GMuIIBEwaVe1uGtAi7f_-Vt0KP6TEOWWSk9nzY9qsAEZ13ti4cJ2T9N1-TVPTtuXZbxfRtdhQWoo3TEhCjlcVcD8D8aI0km4sGkTUyGhSmCtCFjBTVeSmmoN6dKQ1hTddMAg", "html_attributions": ["<a href=\"https://maps.google.com/maps/contrib/102276539461595291242/photos\">Kainos Super Speciality Hospital</a>"], "height": 4016, "width": 4020}], "rating": 4.2, "geometry": {"location": {"lat": 28.851047, "lng": 76.6657795}, "viewport": {"northeast": {"lat": 28.8523959802915, "lng": 76.66712848029151}, "southwest": {"lat": 28.84969801970851, "lng": 76.6644305197085}}}, "opening_hours": {"weekday_text": [], "open_now": true}, "types": ["hospital", "point_of_interest", "establishment"], "id": "63eaab6f3962e8e5ef1a731fb4d13b0317c0330d", "name": "Kainos Super Speciality Hospital", "reference": "CmRRAAAAIwbs6RyAb6WSmpZYPAFHlvWgQQvrzDf83YD4O1IFRqtre9rGzYKXW-Ho7SXFKtRm-2zHiZGfUb7ri7H6uGklcGKviHcR7DTFCT1S5sjnMuEA3Uld8Wnu-DpUMfjG9HuQEhCrqgtzOg-DByER4IFWAemWGhSMRgT89PTzP3_3G2ud7ctAsarLNg", "icon": "https://maps.gstatic.com/mapfiles/place_api/icons/doctor-71.png"}, {"place_id": "ChIJsag2lQiFDTkRSqb8tooUcUM", "formatted_address": "Rohtak-Sonipat Rd, Mansarover Colony, Rohtak, Haryana 124001, India", "photos": [{"photo_reference": "CoQBdwAAAMpK91hc-Gk5vaPGONxLqAzs133NKuzZXY9u9k5oOqvCFWUoewbSe5pkEo3PDzzhq2waQpHT3z2_mmg4nC_-a6Zax6474fdxxCQd9qaFUvk81RD1ZUNY4vy420iyDGQrFnJEYHZhOBTp9A4ntPqDaF45gBQSmOXsvY7TQlT3aUFsEhD39XVbQAr855hxOb6fGKmZGhSePJS9353fwZjCGcsDMFdII6NxVg", "html_attributions": ["<a href=\"https://maps.google.com/maps/contrib/114911033824691374247/photos\">MANSAROVER HOSPITAL</a>"], "height": 3600, "width": 2160}], "rating": 3.1, "geometry": {"location": {"lat": 28.8962009, "lng": 76.5992808}, "viewport": {"northeast": {"lat": 28.8975946302915, "lng": 76.6006347302915}, "southwest": {"lat": 28.8948966697085, "lng": 76.5979367697085}}}, "reference": "CmRRAAAAAJYM7unU3QROBWg7PawTBe5F8XaTuKAQCisFZ69KWCcakGEORlOQTa4SAULZpUuq2wjJKxGoUieKo1IELQNIx4GeY7ELV_a4n3rl0M13OtwnIz1_-lOJ1Xp6wSBtcI-lEhBpUz5F1cBxBjVQePfX-DXwGhSR9zzk95jM1dMw4WccqOxQcyjNPA", "types": ["hospital", "point_of_interest", "establishment"], "id": "15c9dcf0c514f8d440b12a9c75c66e3aa7b5ccf2", "name": "Mansarover Hospital", "icon": "https://maps.gstatic.com/mapfiles/place_api/icons/doctor-71.png"}, {"place_id": "ChIJCflIf9mEDTkRE6JwJ8Gug9M", "formatted_address": "330, Vinay Nagar Delhi Bypass Chowk, Rohtak, Haryana 124001, India", "rating": 3.1, "geometry": {"location": {"lat": 28.8807171, "lng": 76.6267526}, "viewport": {"northeast": {"lat": 28.8820610802915, "lng": 76.6281154302915}, "southwest": {"lat": 28.8793631197085, "lng": 76.6254174697085}}}, "opening_hours": {"weekday_text": [], "open_now": true}, "types": ["hospital", "point_of_interest", "establishment"], "id": "b2e2632a767cc2744a4fe3e820e6b359ab47eccf", "name": "Holy Heart Hospital", "reference": "CmRSAAAA6oRt0Brv8Tnqqzes6Eei19dRftaBpmoSDYg-H6v1mzyIQ8N0nRUbyOlH8oldC9ua1nWkoCv_8bumXVLMduIFebZqEqiGUIX-xkiu9E95usiUJgXIxnExerJJO4ISsq5YEhAf6BRAVapeKuztnv24in49GhQGg_plpKNGMtH2UCw6kOZdXRaZDA", "icon": "https://maps.gstatic.com/mapfiles/place_api/icons/doctor-71.png"}, {"place_id": "ChIJETVI-vGFDTkRVu3z0ERmRFo", "formatted_address": "Jind Bye Pass Chowk, Jind Road, Rohtak, Haryana 124001, India", "geometry": {"location": {"lat": 28.9148149, "lng": 76.5657056}, "viewport": {"northeast": {"lat": 28.9161638802915, "lng": 76.5670545802915}, "southwest": {"lat": 28.9134659197085, "lng": 76.56435661970849}}}, "reference": "CmRRAAAAytLDAS0tqxHXgjRRs7RXdCLlk65IQ2xigmLg7LdAQdXf6XP_S5G3-Hzb9UJNamm_TPR9vRdTGz_46YKNxuUgKr0A_MHX0blixbXVfxWbUwwVqShfO29jUHNISGp17s6xEhDDVsIdGLi9LXvlhgKHrmcvGhSRo_pNdeffFU8VUzRI5I7_9odFRQ", "types": ["hospital", "health", "point_of_interest", "establishment"], "id": "cfa40bf21fb8219cb4db0d435c34e9908cc1ae83", "name": "Shanti Maternity & Nursing Home", "icon": "https://maps.gstatic.com/mapfiles/place_api/icons/doctor-71.png"}, {"place_id": "ChIJtVV4QQ-FDTkR2cGsl4YI_ec", "formatted_address": "Rohtak-Sonipat Rd, Vikas Nagar, Rohtak, Haryana 124001, India", "rating": 4, "geometry": {"location": {"lat": 28.89613959999999, "lng": 76.6026054}, "viewport": {"northeast": {"lat": 28.89745473029149, "lng": 76.6039508302915}, "southwest": {"lat": 28.89475676970849, "lng": 76.60125286970849}}}, "reference": "CmRSAAAAASE6Tb0ic19XAygmpVmDqj-YKVD9zHUAnIKGIdDSr83WM7RodQY69Wc-YyCgpGQ4OU7omsDe5wXabk_U3g99R4kC_rBV8WPK00dXnPcld2XZuTuX4Vu263hFkL55rCN5EhDHijBIwCan0minX7sDmktYGhQUt7uYCiKFL1lJsM8vyRffT53QeA", "types": ["hospital", "point_of_interest", "establishment"], "id": "b86dfe95e0d00e96fe8afe8d1b3ffd49b840c4a1", "name": "Dr. Sangeeta Atri", "icon": "https://maps.gstatic.com/mapfiles/place_api/icons/doctor-71.png"}]}