{"status": "OK", "html_attributions": [], "next_page_token": "CoQC8wAAAPnnIpS0IcSyZI7lv2iZYMRF7I4iSYLMdRi9eyfyYHe68qSSffPspNBGnlh7J8rMXAVWKHoRELeWhPmv4opMWhO0_SdLDVqG3CcTSuc0XJUMbJxsPKGck4dR6P32oDGmJRfrwCZzydeEQfISfJF_49gzETm1YvQEDWk9ZLMzFGjD4Sdc5Rjc8PK6jPvOmwfoHNN0NBAgdpZIRXcpIZBc6ucwQ3Yw2HNSFvX2HdFUYJh44W_wL46mdmWTglU2K4o4pIiEhTOSv_Uxxkrh15dTPTjP_GH5qc8vbq3RyMEA-DoBFaZE4-e8Z9Z6v-clTinNc6CisWNRFXD-0KwMMS05U3sSENjnbWTI_K-h57bkPsAney4aFHc0PGBMtt4_1dW7i_Og8nkxeq-0", "results": [{"place_id": "ChIJsYvaApUYDTkRgDOhAiBaRWo", "formatted_address": "Paras Hospital, Gurgaon C-1 Sushant Lok- 1 Sector-43 Phase- I, Gurugram, Haryana 122002, India", "photos": [{"photo_reference": "CoQBdwAAAH0svCxBJBKygIf7im3AYmMNN7QnjZ7dVlZK8AItS3839vsZQ-c4ijeZEhp-A64db-0rW27aqGSjN-DVEO7A8SyjPjUnunWEYKf9NZ6LORAmpZZBbqWss-M3mKosehEJP2tPhYlAO6eACR48LXVYnY7GR8ZH7DShUbbWtfcjKPYREhDB597H8fgcX2RsiT_QvR8XGhRTHZ0aUKguNYXv6267X5RW0u1koQ", "html_attributions": ["<a href=\"https://maps.google.com/maps/contrib/106627733085177527605/photos\">Paras Hospitals Obsessive Compulsive Disorder</a>"], "height": 372, "width": 350}], "rating": 5, "geometry": {"location": {"lat": 28.45061999999999, "lng": 77.08755699999999}, "viewport": {"northeast": {"lat": 28.4519689802915, "lng": 77.08890598029149}, "southwest": {"lat": 28.44927101970849, "lng": 77.08620801970848}}}, "opening_hours": {"weekday_text": [], "open_now": false}, "types": ["hospital", "point_of_interest", "establishment"], "id": "5f170c19db529dad2e1b45b1d7af17d2c1352855", "name": "Paras Hospitals Obsessive Compulsive Disorder", "reference": "CmRRAAAAgUZX-uq8_WyZSiVQhP7UW0nHyknnkLEgb8eBzOV9RUDKUbvRiN07ye3XnM0gZVT2RPhvkKFtPImhOz5P2l2Hu-m40mwBHB6bsfZnFTTkWox5cIQ-POinDHUTVFY7uOWUEhBpWld734facSxgLCp9TiE1GhRZZ0EuBHqj7QGsSs5dq9V6MHEjrw", "icon": "https://maps.gstatic.com/mapfiles/place_api/icons/doctor-71.png"}, {"place_id": "ChIJ7QuN-mAZDTkRrL92NT6uLQc", "formatted_address": "Old Delhi Gurgaon Rd, Sector 20, Gurugram, Haryana 122008, India", "geometry": {"location": {"lat": 28.514665, "lng": 77.077187}, "viewport": {"northeast": {"lat": 28.5160277802915, "lng": 77.07851798029151}, "southwest": {"lat": 28.5133298197085, "lng": 77.0758200197085}}}, "opening_hours": {"weekday_text": [], "open_now": true}, "types": ["hospital", "point_of_interest", "establishment"], "id": "67c6a789a1ff8dfb606928b41493b89288799453", "name": "Arya Hospitals", "reference": "CmRRAAAAQJ99mMi7PpbgPtqvr_bu04ThC18dHJC3QrSN4Ptxe1qKeaKGYDXM1syl3PLJNxqN14h52-81f_YL1U-x7piMOG5avq3qUC_u26OR0giAiOdaiXEMMlPVdmZ_IqnY9r12EhBPWMjH18vQkIKalJnhNJAeGhRJ8I41h7eM33NbvUSmJdZcOlWvhg", "icon": "https://maps.gstatic.com/mapfiles/place_api/icons/doctor-71.png"}, {"place_id": "ChIJbaPp6CUZDTkR1Hp9dVt4r_k", "formatted_address": "Mehrauli Gurgaon Road, Near D.L.F. Corporate Park, Phase-III, Gurugram, Haryana 122002, India", "photos": [{"photo_reference": "CoQBdwAAAH8f_4mWBMRNMr2U6dZCyxcz2zjr558CPwIZ-BAZvi5eyoLDSR944l4aak1dpYxG1Nkf1E1lAvBcmlvlkvUaf42rH-F_q6Th4bPTk7zT1yi5W4qyVWe3xpBI0TBHhGj8755njL_Hi4w2lJNzXN5rracMacL40NqgEfPs2PENgI1MEhCqlKkx4duKJsMQsfjAufz5GhQN-xtEV3epW-HknlNInKyfakomYw", "html_attributions": ["<a href=\"https://maps.google.com/maps/contrib/111849215058471074911/photos\">LAPPY WORLD</a>"], "height": 3024, "width": 4032}], "rating": 3.6, "geometry": {"location": {"lat": 28.4834487, "lng": 77.1076516}, "viewport": {"northeast": {"lat": 28.4847976802915, "lng": 77.10900058029151}, "southwest": {"lat": 28.48209971970849, "lng": 77.10630261970849}}}, "opening_hours": {"weekday_text": [], "open_now": false}, "types": ["hospital", "health", "point_of_interest", "establishment"], "id": "c93adde006d0d703549d676a4dc73881b8048b93", "name": "Neelkanth Hospitals Pvt Ltd", "reference": "CmRSAAAA1SP57IzkA_IFD0fjPgJUJtiXSxiCMjGraQEHkQEyzpEgTmi12UUQBKgldPxZTrsarpFye_d1rZyvKGl2fMSnHXuNHp2wkkpq-mqK_hzP0g6__RsDrTTqvuOabPZf7InUEhAth06DCu-TIfjmpXdhXI3qGhQEcpdgn6mL2L6Zb9IRkoXjmkS9lQ", "icon": "https://maps.gstatic.com/mapfiles/place_api/icons/doctor-71.png"}, {"place_id": "ChIJ1Q1-pdoYDTkRxvXunZq7_Yk", "formatted_address": "522 30 M Wide Main Road (east of Super Mart I) Sector, Sector 27, Gurugram, Haryana 122009, India", "rating": 5, "geometry": {"location": {"lat": 28.4627882, "lng": 77.09010219999999}, "viewport": {"northeast": {"lat": 28.4639425802915, "lng": 77.0916467802915}, "southwest": {"lat": 28.4612446197085, "lng": 77.08894881970848}}}, "opening_hours": {"weekday_text": [], "open_now": false}, "types": ["hospital", "point_of_interest", "establishment"], "id": "59b587f41a48e9d1d8310900a069ede5fa36bdba", "name": "Eye Q Super Speciality Eye Hospitals - Near Super Mart I Gurgaon", "reference": "CmRSAAAA_U-W-QbG-3zVt8fpI_6GQC3VkWamtG7eFRoHmNQ_IS5nXa0sDWuUe9dy9PYqj3K4X9o4c61rMbHZmNJ0XMHq0ltju95IbHO8kH2UeEoUL_X3WnbjO66ZgNTENhcSjGsZEhAcaBtyBXSIJvKvYZiaIFp8GhQzn8WBj7-FDgZzdRiam96dwkO9mw", "icon": "https://maps.gstatic.com/mapfiles/place_api/icons/doctor-71.png"}, {"place_id": "ChIJKa7n9PIiDTkRKg-4LDA1bmk", "formatted_address": "Near Radha Krishan Mandir, Opposite Corporation Bank, Gurgoan Sohna Road, Sohna Rd, Badshahpur, Sector 66, Gurugram, Haryana 122018, India", "photos": [{"photo_reference": "CoQBdwAAAMtGuJvRrOWTiCZm6yLSkAJeCMQxgItG9W_W-nNL9Jlxb9P3WHjBN5VFaMpzbDQr3eULc636bEhupio3gJLEkj_06EKXI406OmuVjnv58rqiWLIHQjcmva6h45XhM0w1fn9pUIHggRKFRPe-2AFq7Yd67K5l-TFgpAE0VHVPK9_GEhApLlb5xew9ZE7WADImMLFpGhSlRTQgT_7I5CqRNpID2X7xeT-Snw", "html_attributions": ["<a href=\"https://maps.google.com/maps/contrib/111725609891413471453/photos\">Amit Sharma</a>"], "height": 480, "width": 800}], "rating": 4, "geometry": {"location": {"lat": 28.396883, "lng": 77.0465747}, "viewport": {"northeast": {"lat": 28.3986289802915, "lng": 77.0478673302915}, "southwest": {"lat": 28.3959310197085, "lng": 77.04516936970849}}}, "opening_hours": {"weekday_text": [], "open_now": true}, "types": ["hospital", "point_of_interest", "establishment"], "id": "023829d75b7875a12719cd559de0df35a57c1126", "name": "Sanjeevani Hospital - Child Specialist,Paediatrician,Neonatologist,Baby Clinic,Vaccination Clinic", "reference": "CmRRAAAAYZRkUgkuUQya_lfwEbMHFibSkNobnBm__odUaFs-J6Mbua73n6XX3flTLekxS91uJVjVhDHRDL4toGwMA-n2fEFFl6xCLeeV0-4lKvhnfGL2iIUpK4CVBLrYb-_vbTQHEhD2a2q64cJOE46wzWdsU1VRGhS2zhxoCYtJ9pJPHvf9t1cs38-H6Q", "icon": "https://maps.gstatic.com/mapfiles/place_api/icons/doctor-71.png"}, {"place_id": "ChIJ4Sf6OE0YDTkRhcVyHEQXrrQ", "formatted_address": "GNH Tower, Near Sector-14, MG Road, Opp. Govt Girls College, Gurgaon, Gurugram, Haryana 122001, India", "photos": [{"photo_reference": "CoQBdwAAADQU3jnnJgtQ3Z7_CPa1FXIBJF--z9HmazENWzCHPFqtn0o75aOB--AQrVmVfwrQxcpJdUKURovDLWW_Lu62nm0M9DtAfwJmXpeH2ndiJ7ixUaiEBtOabnGvQdVWvf2kFMR67AVnfxALQnhzTz9u_hvB1VtWpAgBx2S9-pEUXHFWEhCiaaQs5zbbJXm5Puljs1eQGhQMEnJt-5P8XTTv43ZHYWh0AbuIIQ", "html_attributions": ["<a href=\"https://maps.google.com/maps/contrib/100234608804819911571/photos\">GNH Hospital - Best Multispecialty Hospital Gurgaon India</a>"], "height": 1080, "width": 1084}], "rating": 3.4, "geometry": {"location": {"lat": 28.4682354, "lng": 77.04309889999999}, "viewport": {"northeast": {"lat": 28.4695843802915, "lng": 77.0444478802915}, "southwest": {"lat": 28.46688641970849, "lng": 77.0417499197085}}}, "opening_hours": {"weekday_text": [], "open_now": true}, "types": ["hospital", "doctor", "health", "point_of_interest", "establishment"], "id": "a82333f1ac30563e595fca6521a040c310d95200", "name": "GNH Hospital - Best Multispecialty Hospital Gurgaon India", "reference": "CmRSAAAAEXsKuk65WBZLP-29Z1y619mRuXp1OjZNp60ZyDc2MY0xYLeGzcvAthLdwysxEmUqjWJBCtYMd9-Y73_YxjMqNYyYXzAiD5gycJlNb6ZbWoKAV0YNP0YQq580ECjOFu9MEhDNR6oidLCSv03Wkf1D2maXGhR3SgJzDJPDgRpEy4cPcc9KZoh1GA", "icon": "https://maps.gstatic.com/mapfiles/place_api/icons/generic_business-71.png"}, {"place_id": "ChIJVa2NmOYbDTkRE_sjIseUZzc", "formatted_address": "Old Delhi Gurgaon Rd, Kapas Hera Extension, Kapashera, New Delhi, Delhi 110037, India", "rating": 5, "geometry": {"location": {"lat": 28.52617399999999, "lng": 77.084807}, "viewport": {"northeast": {"lat": 28.5274984802915, "lng": 77.0861980302915}, "southwest": {"lat": 28.5248005197085, "lng": 77.08350006970848}}}, "opening_hours": {"weekday_text": [], "open_now": true}, "types": ["hospital", "point_of_interest", "establishment"], "id": "c6551638225f4dd3876626a87082c5638540a4aa", "name": "Triveni Hospital", "reference": "CmRRAAAA6iklOczCORoVrD4NqGTKgl-RANPnFoiegUciOFDWDxVyu_TPkAUdaRekktqMr3uyyJ4DtOM1wcUcaUnSyzUOgCTHbHHYK8jdHyRotJ9zQXtN6mIixD7PzrpTKIkzGrmIEhBek0GztzntrM__gA44eG84GhTjvIIib9j9Ux7YwZBn8ogRclT6cg", "icon": "https://maps.gstatic.com/mapfiles/place_api/icons/doctor-71.png"}, {"place_id": "ChIJCbewZIAYDTkRf73iOVeSGEk", "formatted_address": "Plot No. A-2, MSJ House, Mayfield Garden, Sector 47, Opposite Hilton Garden Inn, Beside SS Plaza, Gurugram, 122003, India", "photos": [{"photo_reference": "CoQBdwAAACFqa2BGsaD3XqSL9vvlI1wb2wz0s0-ELlY3QV8NUT3uEuCRaxpxTWAVokXZ3dC84UG14DCXcIV9amhvFBFSBjrulV43T5sgDKYuCIOh0C6PC5K1-u47LffYlCPCm5n9jKzL1ce8UTEbj4R8EX_HPN_ewgKbNaQ_H-4fXC9gI0kQEhCvR6Zlo7uIoiYrFTFXXwRnGhRAOnI9DkfleT-MbNahu5YkCubCGQ", "html_attributions": ["<a href=\"https://maps.google.com/maps/contrib/116056338106779887868/photos\">Design Pundit</a>"], "height": 1836, "width": 3264}], "rating": 4.2, "geometry": {"location": {"lat": 28.42745760000001, "lng": 77.057441}, "viewport": {"northeast": {"lat": 28.42880658029151, "lng": 77.05878998029151}, "southwest": {"lat": 28.4261086197085, "lng": 77.05609201970849}}}, "opening_hours": {"weekday_text": [], "open_now": true}, "types": ["hospital", "point_of_interest", "establishment"], "id": "c7a779911c609de4feda6854f809d2d6b60a7070", "name": "Cloudnine Hospital - Sec 47 Gurgaon", "reference": "CmRRAAAAFFQ5geLEtrkylwMmd7dBBVA5rnXFPEjRf4oJ8r8oTVhG_kSVfm2KobXL53kKmw-91FtHPklysgHgeSmmuHkTTu5Hs72alWVWwIAL3tYsU41CdSd_gNGTU0zSEWpG9oFLEhC7AwN2o7rOU7aZDk_TRDggGhSdn4BDPOsgTyCBqHL1EppiWKhgGw", "icon": "https://maps.gstatic.com/mapfiles/place_api/icons/doctor-71.png"}, {"place_id": "ChIJ09WJapwiDTkRrdJcMefQidc", "formatted_address": "Main Sohna Road ,Near Community Centre ,Badshahpur, Gurugram, Haryana 122018, India", "photos": [{"photo_reference": "CoQBdwAAAIeDGI6TrsMUxpyxcgawpDnkU9Z2rJC0xC9xG1vJLP9-_mzUsTy4-9RTarQSKEkL0BRWnxqeWWUMUj1AiU7mD2zcDCue3hmbB1JMu7wh12zScflmKATSl0umuKiJvTbE24ScBm9AbG5NK8CN3jOlW7FeSDjW2oS920clr9VYfQhoEhCbFXum749PZ9WYOoM47rNLGhT_c-yiFrl4poLtEcwxEnJMLfqVHw", "html_attributions": ["<a href=\"https://maps.google.com/maps/contrib/116189031499456901130/photos\">Ektaa Hospitals - Best Hospital on Sohna Road Gurgaon</a>"], "height": 335, "width": 337}], "geometry": {"location": {"lat": 28.418506, "lng": 77.04079399999999}, "viewport": {"northeast": {"lat": 28.4198549802915, "lng": 77.04214298029149}, "southwest": {"lat": 28.41715701970849, "lng": 77.03944501970848}}}, "opening_hours": {"weekday_text": [], "open_now": true}, "types": ["hospital", "point_of_interest", "establishment"], "id": "d8376d440a5fb84ddc137954d840c8391b4e352c", "name": "Ektaa Hospitals - Best Hospital on Sohna Road Gurgaon", "reference": "CmRSAAAAbXrccMKdDVm8ePYnrwQNnLsKJB3kiXZnWSoZUDdObYOCpR-L2V12PcJD9VHPCXrpcldJPTXzjcJiryit1sf-k0M5QpDir-xYE7-dtgPDhaS_uRA1f6gr4cWgCoqpQHc7EhC_BLLVR8CG1-MBs2Do-GK5GhTh057qo00FoQFOtjY7v3fbOC380g", "icon": "https://maps.gstatic.com/mapfiles/place_api/icons/doctor-71.png"}, {"place_id": "ChIJ3eobr3kXDTkRTK0MbSB62RU", "formatted_address": "Neki Ram Marg, Surya Vihar, Sector 9A, Gurugram, Haryana, India", "photos": [{"photo_reference": "CoQBdwAAALRLWMHnY3-oAsTne9z73Lkbd6DXiECuFJRdM010crMwDyu6Q6prkvGW1IWQfimYca3KXzuXMwZ0vfkrWquIcIKVU2eHKtKoGAgthRWE8CK-pGm8ynAurmpmUoCP82zHhFxNNYaEjqKraDNBkcpWwzvaWpsOcEULQISZfuimuC9OEhBOH0nef4ofq2Xc7zundOIvGhSlNVQyFJgT72vNT20io1zAClIYOA", "html_attributions": ["<a href=\"https://maps.google.com/maps/contrib/102311454924772978526/photos\">Avinash Gautam</a>"], "height": 855, "width": 1363}], "rating": 4.2, "geometry": {"location": {"lat": 28.4681812, "lng": 77.00079930000001}, "viewport": {"northeast": {"lat": 28.4693250302915, "lng": 77.00188403029152}, "southwest": {"lat": 28.4666270697085, "lng": 76.9991860697085}}}, "reference": "CmRRAAAANelYKTi6evG_RUqyT4TP0TcF-Hnu6Fn4-lozlV5sfC5BUYVTD3bJ5r6py7t7AzrHhkwrh01yGhEJCCbH4uOGWRFBWBNbnYEyRoZhgmaSzBzhlAhMDRf34ckrihBWYVxGEhCtR6PeNAXirlm9ujZSzP-IGhTtYeAlTWaxu6USDn4IcT_xaf1XAA", "types": ["hospital", "point_of_interest", "establishment"], "id": "c39522f248b224b261edd8bbca3bcdfb759506a9", "name": "Employees State Insurance Corporation Hospital", "icon": "https://maps.gstatic.com/mapfiles/place_api/icons/doctor-71.png"}, {"place_id": "ChIJW4n6iZsYDTkR4NAMIawojhQ", "formatted_address": "Artemis Hospital, Sector-51, Gurgaon, Gurugram, Haryana 122001, India", "geometry": {"location": {"lat": 28.431546, "lng": 77.067956}, "viewport": {"northeast": {"lat": 28.4328949802915, "lng": 77.0693049802915}, "southwest": {"lat": 28.43019701970849, "lng": 77.0666070197085}}}, "opening_hours": {"weekday_text": [], "open_now": false}, "types": ["hospital", "doctor", "health", "point_of_interest", "establishment"], "id": "733f1e036fda81efb3f25a3988f9205a4e5144b6", "name": "Artemis Hospital Sector 51 Gurgaon", "reference": "CmRRAAAAsU3d5HhN6-N3R8qmLTlIs-EJb_k43-s7JAJ71sZuG2Hj84BAz7EKY5u5SVzBzjX1LcxWybA_zXHMs6XjVVszeWvjWN78ideI8pPd25uqYYPG3m1VZwh1cF2aHukyFUDsEhAGjZxH_I8uCrb_FdGC6r99GhQSDJu8KfSIzgXtyqvgJsLYFeUVew", "icon": "https://maps.gstatic.com/mapfiles/place_api/icons/generic_business-71.png"}, {"place_id": "ChIJq6qqqoMYDTkRKPp1AxSFQEA", "formatted_address": "Sector 51, Gurugram, Haryana 122001, India", "photos": [{"photo_reference": "CoQBdwAAAJLS1AMZQuWIiAIjJyecMRK_DCksUwuFIJ8SvVn0nC-B3cBvuCAZtL5kQ1wJGS3H6OsY6Z_4aHoChA1xXaYBVJLy13tkN2BPuAmMk6SPqKSS-Wg1yIBHyZDgXbKxaGNDpHzpI_fgix47pA_9CvlmhHJ_Zwev01yyCB_qe8sVQF9SEhBDFMSB4MstkV2QI3sqoTEtGhQkaOXXQj3N9qoL0GUC6zAKfTrgqw", "html_attributions": ["<a href=\"https://maps.google.com/maps/contrib/105955368826402611429/photos\">Traveling Zulu</a>"], "height": 2101, "width": 3264}], "rating": 3.7, "geometry": {"location": {"lat": 28.4314767, "lng": 77.0723886}, "viewport": {"northeast": {"lat": 28.4328256802915, "lng": 77.07373758029149}, "southwest": {"lat": 28.43012771970849, "lng": 77.07103961970849}}}, "reference": "CmRRAAAAKSC6uAfP6RV1vvn_u-8YeVU_KCLzRXa_o5X-APT3qPgCzKhhhJ-BTpBMb8VwGor7NX8PDp0Dk1Expa6V8hHyiOTZ9yTmsySJWK_8zymNoOeSUFFzkcLhU4SalEsWKx03EhDVFjiFCqteFHOX2lT09kjrGhSEkHzvJUmIR2R9ABe-YCORaBWXAg", "types": ["hospital", "point_of_interest", "establishment"], "id": "4da9b5ba7ffa343d5316165aac0a346b5daf3f5a", "name": "Artemis Hospital Gurgaon", "icon": "https://maps.gstatic.com/mapfiles/place_api/icons/doctor-71.png"}, {"place_id": "ChIJPzOUEOYYDTkR4piY0Iy6IxE", "formatted_address": "B - Block, Sushant Lok - I, Opposite Huda City Centre Metro Station, Gurugram, Haryana 122001, India", "photos": [{"photo_reference": "CoQBdwAAAJK3CqmzWZlzZ409gxUR9z46ip4PHGiVuSTmd2SkBYjvo3mGiAPl0tTedMr1MHhxZ-CB8t8fVpQNG5fmXP-Z_b90ciY4zU4i2CATCqLaSa-_onrgkU6cTmR8KzS0o1z8b6pH9h8RYVVC3YlBfVAmQW3jRTXYVglSqJB25dvcdlKzEhDr2ItZ8_LKfY5lqjUWYT3IGhRoaW5AgcLYjMuUjm3sFMyBQxgJWA", "html_attributions": ["<a href=\"https://maps.google.com/maps/contrib/110705146266731974778/photos\">Max Healthcare Hospital, Gurgaon</a>"], "height": 250, "width": 250}], "rating": 2.8, "geometry": {"location": {"lat": 28.4603913, "lng": 77.07581880000001}, "viewport": {"northeast": {"lat": 28.4622077802915, "lng": 77.07652858029151}, "southwest": {"lat": 28.4595098197085, "lng": 77.0738306197085}}}, "opening_hours": {"weekday_text": [], "open_now": false}, "types": ["hospital", "point_of_interest", "establishment"], "id": "0548ed47506f8a9e430fcbd59361143f39d5e5de", "name": "Max Healthcare Hospital, Gurgaon", "reference": "CmRRAAAAyeB8so8H4zNIvPv0dp6CZm7l8dj8S95U4ChI6WLnDgFE7ACf6IBIW28qYeAcXLTOU-xTzrjYYB0Gh_1Z9WCn3zvWGQ84yuWzuKt4tY2rCYYDn_9HL5fz5xszK-6qEJplEhAuoGxjs7nEtViwYk1CdX3eGhS6hUGf7WP5v_TbumvBVjAk4LdKNg", "icon": "https://maps.gstatic.com/mapfiles/place_api/icons/doctor-71.png"}, {"place_id": "ChIJAXpV2swZDTkRWp8eYCpRbxA", "formatted_address": "In Sheetla Hospital, Near DSD Collage, New Railway Road, Subhash Nagar,, Gurugram, Haryana 122001, India", "photos": [{"photo_reference": "CoQBdwAAAC9wBIv1g1i3CHZCZA-UepsWMtnShcsP71JP7LWDBB3n0v87GlGuRQuEnwJsRXTcjGqZNsJTAsy58uDSCn_yB052N7LIOPkspIrNdyWI_DxgxIl_XsJIE4lQnxpoAL0mE8XFC-RlciQR9sdFD-ol_w5awTzjIiMLi3YVKNLG7ilREhATtrU_L_9haEnoZHcyN5niGhRFVhjJDt_-EWKc--6Qqu8L0Lr03A", "html_attributions": ["<a href=\"https://maps.google.com/maps/contrib/108276474300512586013/photos\">Eye - Q Super Specialty Eye Hospital, In Sheetla Hospital</a>"], "height": 2340, "width": 4160}], "rating": 3.1, "geometry": {"location": {"lat": 28.467941, "lng": 77.026144}, "viewport": {"northeast": {"lat": 28.4692899802915, "lng": 77.0274929802915}, "southwest": {"lat": 28.4665920197085, "lng": 77.02479501970849}}}, "opening_hours": {"weekday_text": [], "open_now": false}, "types": ["hospital", "health", "point_of_interest", "establishment"], "id": "22a110361bdf398b9ffbf17a54c446bc535aaaa6", "name": "Eye - Q Super Specialty Eye Hospital, In Sheetla Hospital", "reference": "CmRRAAAA0H3Fm4T8z4i76zp3GskSgZQvyAYp2pfX7AI9-H61kN9cea3-aOrweI3_CJzrzX_TA60h970EvmtpNomI9oq0okrJjFrZz-T6NOYfxxEGsHEUxvQjsflWDxO4LZypi-J2EhDDA65tW23M24zTW7Ub5WwjGhSnLfY4PVvCGUCzHBtNOhfz1Fyerw", "icon": "https://maps.gstatic.com/mapfiles/place_api/icons/doctor-71.png"}, {"place_id": "ChIJVVVVVSUYDTkR4Fv_wiXmhLY", "formatted_address": "Artemis Hospital, Sec-51, Gurgaon, Gurugram, Haryana 122001, India", "geometry": {"location": {"lat": 28.4554726, "lng": 77.0219019}, "viewport": {"northeast": {"lat": 28.4568215802915, "lng": 77.02325088029151}, "southwest": {"lat": 28.4541236197085, "lng": 77.0205529197085}}}, "reference": "CmRSAAAARl0pl7zEyRZrij5VAmAmM9_2KE-fMIOe3jSHBAE3YOwTaxhijGH2AhEjyNTi0KIf_MfXcAoUWs9z3MR2SZjR_3cp07ERB93l98nU7dR5D8y3Jx25RVpRdOPOFK_che1lEhCCuG4Sa2sgsyyycptKs-OIGhSOYBxRDkirl2GAgCZoUE6X-HL4-A", "types": ["hospital", "point_of_interest", "establishment"], "id": "af7c7018aacfdbfaa5738e16cc751c7c20a75152", "name": "Fortes Hospital", "icon": "https://maps.gstatic.com/mapfiles/place_api/icons/doctor-71.png"}, {"place_id": "ChIJrW7JMyEaDTkR2lP9ulnHAs0", "formatted_address": "H - Block, Palam Vihar, Gurugram, Haryana 122017, India", "photos": [{"photo_reference": "CoQBdwAAABs-1R1NdtB3MPkdA6ezxyLR1uitaH3L0mhcZ3QRpVu-QZdO9mS9sDP2fkgWWWihNqCTAd69gFAt-ZIEmf7qqMso1u4Shi33uviPa_PHyeP2l7I-gOL0QyKIwvobpItu5uUKAM6jq_HXcGacjGp_DIyIAZgUkb-uzRr6FHZ1JTlUEhBS19nrZl9ZWl4bOcRmM7T4GhTRo43_-h5iye4mA1Ny28UChu5tCg", "html_attributions": ["<a href=\"https://maps.google.com/maps/contrib/103749548887484956367/photos\">Metro Hospital and Heart Institute</a>"], "height": 531, "width": 800}], "rating": 3, "geometry": {"location": {"lat": 28.5180666, "lng": 77.0390172}, "viewport": {"northeast": {"lat": 28.5194155802915, "lng": 77.04036618029151}, "southwest": {"lat": 28.51671761970849, "lng": 77.03766821970851}}}, "reference": "CmRSAAAAzQcew9q7dVo_lElU2y_FXd4thHeqHbICamUIr5rGI9EZH3HoBHiTHcXg_-ZOu3d0aisPeAOtlFAl6YjjlNkOwekesnTmhbyV62jIcmIQ1rNzzgJg4laYr0Gu_5vGbii9EhB51h1_54rScqd5tJsXfS2xGhTinVI-NjzA4ZANvFcVvykDopOJGQ", "types": ["hospital", "point_of_interest", "establishment"], "id": "896cb315ff8480d1d3d0b5c20a6defc9c8237d37", "name": "Metro Hospital & Heart Institute", "icon": "https://maps.gstatic.com/mapfiles/place_api/icons/doctor-71.png"}, {"place_id": "ChIJqcrsQ00YDTkRExc4UpRJHAQ", "formatted_address": "GNH Tower, Near Sector-14, MG Road, Opp Govt Girls College, Gurgaon, Gurugram, Haryana 122001, India", "photos": [{"photo_reference": "CoQBdwAAALUZT59uyDz5X7LQJnscVGhbm5WJc53NFLKtgG076mw0g9nV6z2rD4NJw1RiVQ8n1INT_4Q2XGO8tHQmv-xlTp0WYeHRCbRYDzuRuebbHMX0PzdV2VGDp-8_ajf060U_cObFfRm6AB4u2g87WDUZS2SFZE7n2SzSkoJZBLvlP_Q4EhDopUH8v61jCNoiJF1h4Z4LGhSzI_Q4lzJ72NTZ2xQ_uHW-UYP2Bw", "html_attributions": ["<a href=\"https://maps.google.com/maps/contrib/109230033733505442070/photos\">Best Hospitals &amp; Doctors for Joint Knee Hip Replacement in India</a>"], "height": 1439, "width": 1441}], "rating": 5, "geometry": {"location": {"lat": 28.468266, "lng": 77.043633}, "viewport": {"northeast": {"lat": 28.46961498029151, "lng": 77.04498198029151}, "southwest": {"lat": 28.4669170197085, "lng": 77.0422840197085}}}, "opening_hours": {"weekday_text": [], "open_now": true}, "types": ["hospital", "doctor", "health", "point_of_interest", "establishment"], "id": "ee6680ee34c660d36ea74f03493a856ec70063f3", "name": "Best Hospitals & Doctors for Joint Knee Hip Replacement in India", "reference": "CmRRAAAA9987g1hw8V40TU1bQoZ9PowndziTTJ6wm32zZfEaKHRXBw34ndPj74_QZ0MvU5bNdirFdhb0SGNQF0R8V2VsUt3UM-J_Kj2KHQvS3CuV8fBT23pJH02V7IKw5ZclOvoFEhA-I93xXbelomL4e7ZGOlIXGhTbfpbm-hCgYVMo6geL43S1Q26w2Q", "icon": "https://maps.gstatic.com/mapfiles/place_api/icons/generic_business-71.png"}, {"place_id": "ChIJdVakIm0YDTkRnZXrJg7Qu9o", "formatted_address": "1, Sohna Road, Islampur, Sector 38, Gurugram, Haryana 122018, India", "photos": [{"photo_reference": "CoQBdwAAAB_8q99QBm6N_oTSJHXVNTR0Yo1vN2jrNoQPZlZzUK8LbUbjKN_uXcST9r6wLFCWSMhVYGB-pAemiIJ6E-ZJvjeWFdh0XvpoL5q6M-Kg1vhWcZv9me3JrOSOJdcxIsvpYqLyru6PcGxgTVaZMeLo52Y68jKsOlJYC2V8RjsrkyZGEhBwGlqfPsjwXPDr8fYzaxlNGhQd5lBQBdkgraGmt9MvxSKOwVqOjw", "html_attributions": ["<a href=\"https://maps.google.com/maps/contrib/108868369183242182785/photos\">Samvit Hospital</a>"], "height": 1247, "width": 1251}], "rating": 3.8, "geometry": {"location": {"lat": 28.4349991, "lng": 77.03513769999999}, "viewport": {"northeast": {"lat": 28.43634808029151, "lng": 77.0364866802915}, "southwest": {"lat": 28.4336501197085, "lng": 77.0337887197085}}}, "opening_hours": {"weekday_text": [], "open_now": true}, "types": ["hospital", "point_of_interest", "establishment"], "id": "1dd77a48899b51bb3b31136d5201ec5d0fd26245", "name": "Samvit Hospital", "reference": "CmRSAAAAJwbAaWAbYHmMcFY2f1v0fWSvo0ZHtXUT7Nop5RqJgvt0fmW1e9GG7FjOlOUQUa4k8TvtToyetwDitpVpjDG5rAoF4vhgI_OfaMkG8OjpVN-LC3fDlfk1vxfADQk8ZlwkEhAFogm8ehMlG5iKbiJiURthGhQiJiZj3aUyc8igQHbtazfelSU6uw", "icon": "https://maps.gstatic.com/mapfiles/place_api/icons/doctor-71.png"}, {"place_id": "ChIJLYrCr0sYDTkRGIsFwSDF4as", "formatted_address": "239- Basement, Sector 45, Gurugram, Haryana 122001, India", "geometry": {"location": {"lat": 28.464866, "lng": 77.03692199999999}, "viewport": {"northeast": {"lat": 28.4662149802915, "lng": 77.0382709802915}, "southwest": {"lat": 28.4635170197085, "lng": 77.0355730197085}}}, "opening_hours": {"weekday_text": [], "open_now": false}, "types": ["hospital", "doctor", "health", "point_of_interest", "establishment"], "id": "fb09ca8d6672c6dd018334576c7ebaed73bed686", "name": "Best Psychiatrist in Gurgaon, Dr. Jyoti Kapoor Madan", "reference": "CmRSAAAAcTBdzyOArgvc_VFbhB4tuZyOuIUr7du5qDTWwO3UMFu9m0jHfR-X4HmGxi64voUy-bdO9OYFS2rPI6T9oMFE5QchSATFjHAh1SA_nyW99dURzWT_qFdsQDGS41NQsborEhBRHO4XRConeWoG_mFwagFPGhSOtqn5FB5xRXMnfhXvgJRxcsAGGA", "icon": "https://maps.gstatic.com/mapfiles/place_api/icons/generic_business-71.png"}, {"place_id": "ChIJYweN3O4YDTkRNK1t64XDb-M", "formatted_address": "Sector - 44, Opposite HUDA City Centre, Gurugram, Haryana 122002, India", "geometry": {"location": {"lat": 28.4568992, "lng": 77.07255479999999}, "viewport": {"northeast": {"lat": 28.4582481802915, "lng": 77.0739037802915}, "southwest": {"lat": 28.4555502197085, "lng": 77.0712058197085}}}, "reference": "CmRSAAAAbmhEr4kE4SNTGDD5NNN-scxQM9iK48Ms104mSAWnBCxTNIqYUfq30JrZBSoaX1Rda0rlvzOth_RM-y1_LqMwbtoyrHuN57Ue4a-nDgvudKabCxehApfco-8BcBfWk-ckEhAW_SZwaIh1M9_u8tqMpeo7GhQUbYegj_THScQYhtFtPeubluFhVA", "types": ["hospital", "health", "point_of_interest", "establishment"], "id": "4d6ad596434db0aeea5f8239a5eb7ec5f005d285", "name": "Fortis Memorial Research Institute: Breast Clinic", "icon": "https://maps.gstatic.com/mapfiles/place_api/icons/doctor-71.png"}]}