{"status": "OK", "html_attributions": [], "next_page_token": "CqQDlQEAAPSTv0bNeaQrGKKTrOUJFWf6IHGWoFS77ecald-PAYXTHEvlUYj95eQajP9KrOe8KO8lli8ZYcg3HPXJ40lnUXASjMScXF7BIM8qFAYFTYrT3_QMDEU5EnuE1iyFO3M9TAKUpQiRGPJy4eLk5NV0Q2oWkPWvjbqlZZD4LDLsitrUScHS9LNTUrP-2FIOgkitBJaf4mdU0XCIYu-ShP2ItP9q0UBy_MjGzVFwGtPwkzVsyO_VrYMOmsnuYznPFXCb0a_21Gnbd5FbLHZRUSYO10wWoRiTuh19Ab3lbeM4ERjSySQA8Uy4aDj8JSreORMsT9EhQfjXXjgrAoFO_Nc9odXSf06rL4EC7vSB8N9mwYaYr1F6ubH9g-inKI89Czbv01K3okXF2moQ2iDQobKsF6iEsTUjnt-3tv9OMs6qB2gbsW6TTZK9CHr6fuKVfxhX-hfohQfnpU6n_UxAXnDGZEnZBrjoleNM3y82oDpqQEpjwtoeruZ7GRuHMGHeRGszGsoF6bZLfyyc9qaTMyHJwce2VFMeR1pb0wJNRYcOx32YEhCB1Q5w0MPv1ALavdGuBosIGhQEvGqxdiCH9XCNqrbBU9E973lvmA", "results": [{"place_id": "ChIJl44PG0QFDTkRUxTRQMJ9Zzo", "formatted_address": "Vipin Garden, Nawada, Delhi, 110059, India", "geometry": {"location": {"lat": 28.62141429999999, "lng": 77.0270841}, "viewport": {"northeast": {"lat": 28.62276328029149, "lng": 77.0284330802915}, "southwest": {"lat": 28.62006531970849, "lng": 77.0257351197085}}}, "reference": "CmRRAAAAKdSwkYZ10mxJd5uzqZMS2ax3YkBj0JRVdn6sWhPnuvl62NGGlQTvFdxANUoE069cCQe4lbt41WphGyMjYUQzhFW_WsXHpcX6PCiPDn_bQry6b7_BrzNAJ6Z-bh6cwqjBEhCqmNG3ZXpnbajTBbrI9wbWGhRKVoHu1dtIQndmTUoW1scW6a_Hvg", "types": ["hospital", "point_of_interest", "establishment"], "id": "146292125d65a22af412998708602af7610d1700", "name": "Hospital", "icon": "https://maps.gstatic.com/mapfiles/place_api/icons/doctor-71.png"}, {"place_id": "ChIJd2GG8pgBDTkRmpSVJw5b3HM", "formatted_address": "C and D Block, Jahangirpuri Industrial Area, Shalimar Bagh, Delhi, 110088, India", "photos": [{"photo_reference": "CoQBdwAAAPOqjjEdVH7228BWA2oDudIkXHuOJXf9IgbVKz9v7_7nvo_GevOqmyocERPA3XH3PToAb7KCL15unSZyHOibrPTg6KNnLIIJsg63gU9RYl9aY35A8gOnWl5gq1MTTNNmTqMqsdExor7yRTuChL0YNXniCE5DO3Y8zsAapiA_JR4sEhDo5KFqTr7V0K11sfXZN2TyGhSjuG2WeZc2qYycZRLmiEpfEgZ4jg", "html_attributions": ["<a href=\"https://maps.google.com/maps/contrib/101198003881390408962/photos\">Sood Sahab</a>"], "height": 4608, "width": 3456}], "rating": 4.2, "geometry": {"location": {"lat": 28.7279942, "lng": 77.1532883}, "viewport": {"northeast": {"lat": 28.7293431802915, "lng": 77.15463728029151}, "southwest": {"lat": 28.7266452197085, "lng": 77.1519393197085}}}, "opening_hours": {"weekday_text": [], "open_now": true}, "types": ["hospital", "point_of_interest", "establishment"], "id": "60cfdda1175811e005afa2babe295fc9dff94229", "name": "Max hospital", "reference": "CmRRAAAAPNlzZ2S1uW-KIr3IaeDMgeOW8Y8JsdkJgmGmBFVHnnwBQr1ovSZqk4Whmg94IogYANddvaRDwih1tPhCGf5Wj5Tm4O6nl3Cy6rZQJFlSXds6TcP5UQhUVXPjyFKp_cYfEhC2V4bfyK-fjEa5ZTvN6N0GGhTtnUimO3LQ7Invz-nSTEn8uWnxcg", "icon": "https://maps.gstatic.com/mapfiles/place_api/icons/doctor-71.png"}, {"place_id": "ChIJU9wlrgsDDTkRGFN1K7Z9TBM", "formatted_address": "Ring Road, Near Raja Garden, Basai Darapur, New Delhi, Delhi 110015, India", "photos": [{"photo_reference": "CoQBdwAAAHZiVcfVgoHWo1V2PNXRA7zx8ucUq7nZTr6I5oaJG8lzmO4nakQ7vMNGxgdX5Nzkb61k2gkKpJfpcrAxg56N3ZQSMAcP2dD45iUpKbHa-gLocGR104jYcAkz_4Hlj74RfOlkHIu6M5SXWwq4qMuaZtr2Abk46h_cdmiHcxhrIqWwEhDRZOaXYUDGqbH9CIZol8p_GhSwaK6MWga2MHrkDqWSIVZGs7016A", "html_attributions": ["<a href=\"https://maps.google.com/maps/contrib/105024829717121457493/photos\">SP SINGH</a>"], "height": 380, "width": 552}], "rating": 3.5, "geometry": {"location": {"lat": 28.6576975, "lng": 77.1301208}, "viewport": {"northeast": {"lat": 28.6590464802915, "lng": 77.1314697802915}, "southwest": {"lat": 28.6563485197085, "lng": 77.12877181970849}}}, "opening_hours": {"weekday_text": [], "open_now": true}, "types": ["hospital", "point_of_interest", "establishment"], "id": "16e5d1fc182a0a71aa857263843eaabf11c94332", "name": "ESI Hospital", "reference": "CmRRAAAAOcFwqpw5dh9g6q4frDFZVcyAgTCAwKADGNB5_O2sy_AgDeuDilXnVz5enSiRCP0YOQ-39rBlT_Q5RkDaDO2UWOJ3uvsXRD8mCVVjKMhoDFIEh4REG68wU5V5MJCgdYAeEhBrwL-MMK6qKY2TaW3AZIdWGhS4aR68GbAIZID6zgIgOLy7mhY6Xw", "icon": "https://maps.gstatic.com/mapfiles/place_api/icons/doctor-71.png"}, {"place_id": "ChIJh6AyaMzjDDkRUzNeqniPLPk", "formatted_address": "E60-62, Hans Raj Gupta Marg, Block E, Greater Kailash I, New Delhi, Delhi 110048, India", "photos": [{"photo_reference": "CoQBdwAAAAD8-y73xqdmawOPcWLQQxjTUJcraXJPhCzWn-WjkriZSag5uc_hGX9ckO09wEhAtGnlY0aWkkhbEejszQeC0BOruApwDUGc0wt-9qhbq_Z9_PdIkq292UcHdH7a6f7tcDIFdwyWg1QCpxd9daJbt7XLsbUMEARfEhk1djId4nAYEhAm8jD6f_7U9z7xyeL93uDJGhSSgDY_MxWoi3y60RCGz7EfFliWTg", "html_attributions": ["<a href=\"https://maps.google.com/maps/contrib/115990830577808110104/photos\">Phoenix Hospital</a>"], "height": 533, "width": 800}], "rating": 5, "geometry": {"location": {"lat": 28.5500577, "lng": 77.2443772}, "viewport": {"northeast": {"lat": 28.5514066802915, "lng": 77.24572618029151}, "southwest": {"lat": 28.5487087197085, "lng": 77.2430282197085}}}, "opening_hours": {"weekday_text": [], "open_now": true}, "types": ["hospital", "dentist", "doctor", "health", "point_of_interest", "establishment"], "id": "bf77436683e4fd164bd2c5010701495db375f356", "name": "Phoenix Hospital", "reference": "CmRSAAAAeTlP2674WBAjyirbZsE_K9_BrsufLrF7w4GBQWLNcbverAgf8cGaBSVZ6ozR9I5l-dwqv1IpLbE9TFA9XaHc4xj_idDjHpdCRyQkldkKSRbaKGpmRAxOBthFilLNxGRsEhDIMyssKchlLJJB1PSCg6qNGhRRFZh7uXZ_TXAGB_nLJ6EXu3ndpQ", "icon": "https://maps.gstatic.com/mapfiles/place_api/icons/doctor-71.png"}, {"place_id": "ChIJ3ZqSJ1zlDDkRkJYlFIn9yq0", "formatted_address": "B-22, Sector 62, Gautam Buddh Nagar, Noida, Uttar Pradesh 201301, India", "photos": [{"photo_reference": "CoQBdwAAAD__qcPfdrhl1Xb9xxQuTI_gXv7SsuDUIxwtnAFtf4mnoA1AhPM5NLmF_AQvVOEfumwksmlSqTPI6ZfirGd7KPvNw_2ZOVXZ-H5T0xNvTvJ7J8E0b0FmJyAFHSSopx-kfLHOH9yAgqLdxITMnPAVxsvAvbAPoBTLaGMCaKRf8o0uEhBZQwkvAfiQmEfKyBbjOacvGhRdU6y7WCI9FMGPBQr3bQnRDlj3ag", "html_attributions": ["<a href=\"https://maps.google.com/maps/contrib/107926457180322213298/photos\">Vivek Chauhan</a>"], "height": 3142, "width": 4190}], "rating": 2.9, "geometry": {"location": {"lat": 28.6184089, "lng": 77.3725947}, "viewport": {"northeast": {"lat": 28.6199456302915, "lng": 77.3745228}, "southwest": {"lat": 28.6172476697085, "lng": 77.3708536}}}, "opening_hours": {"weekday_text": [], "open_now": true}, "types": ["hospital", "point_of_interest", "establishment"], "id": "a01229e5764517ba416675b910caf9eafce79a9f", "name": "Fortis Hospital", "reference": "CmRSAAAAMUCPra7Fk3hSJN1QFhe2VLBrHeyqtBHZ7mES0l-B1vELvPg31IVVKHPteovjr1WBf99M1_2UUDTeHA_z2tQVZtCHWWEktKCtXaFZ2I_ypRCqzEPZpZ0EzVjewcX9zpvQEhBowtUwaaVlkTvs0VONuJauGhQZ90kjaAvBMQJxKYQpzwykLEL8IQ", "icon": "https://maps.gstatic.com/mapfiles/place_api/icons/doctor-71.png"}, {"place_id": "ChIJx6shbdLmDDkRzqGaCf-Pt6k", "formatted_address": "Railway Colony, Tughlakabad, New Delhi, Delhi 110044, India", "photos": [{"photo_reference": "CoQBdwAAAElK1jBFJlv92xtZbECVA1JvyAQ1BsZMjuzNc612Wr1vmPVZ-VfEkkDI9c-TNdbEFXnMxbIjK4O1CbyoyZTu3VFrT0CqAfiNMLvY0v62n77HAQfztr2nPzQtSiMR3NQlrsV8HLJCRHwIXAKOxPpbwJeZ8FtSs8KGO_UFtBKEfK5MEhC6qsfjWqzthZFjCERHD8rXGhTD-pJPdqIAgs_C0_vhJFFNL8DQmQ", "html_attributions": ["<a href=\"https://maps.google.com/maps/contrib/102916979787397078487/photos\">naman vats</a>"], "height": 640, "width": 640}], "rating": 4, "geometry": {"location": {"lat": 28.5032308, "lng": 77.29071739999999}, "viewport": {"northeast": {"lat": 28.5045797802915, "lng": 77.2920663802915}, "southwest": {"lat": 28.50188181970849, "lng": 77.28936841970848}}}, "reference": "CmRSAAAAEmd-DUmkHic-_iSYnImZIXcwFN2fOI3Z8qep9_5hfgkpjlyXEPe-EamxwpzP4_wPtScu-a4dCkJ6f7fYkd5O53A89SNLA20NLJWzMsx7t7184GNi28GhUnw9nil5HEV-EhBbFShNoyhlY8xBNhYytxcJGhQWTqrXIzhFHnrT4FkR5OSYoJfryQ", "types": ["hospital", "point_of_interest", "establishment"], "id": "e1f4b6fea204304e4a0394e109d2114191def269", "name": "Western Railway Hospitals", "icon": "https://maps.gstatic.com/mapfiles/place_api/icons/doctor-71.png"}, {"place_id": "ChIJ-8XUJ_ThDDkRwQuX9LtHLVg", "formatted_address": "1,2, Press Enclave Road, Mandir Marg, Saket, New Delhi, Delhi 110017, India", "photos": [{"photo_reference": "CoQBdwAAAE3FTbIp3H8t3nEw1bowhhXbRqDDRs-yUPssFiwDu0PNWT_cWzqZgowwxE75mFvcj_4YNnCP-8l625-zhaG1iChXFCgdHM3rWfZddw5920DEqwqOONsPCJysUkR8iWUk1yYq2Q68A4hNsPlcpx_jfc32HnxVouV6HbXPhKWR1rP2EhA7bPVcj2BFPwkuGz2cGuP1GhRnCJUCjY9Nns9GpLerttmxTzv02Q", "html_attributions": ["<a href=\"https://maps.google.com/maps/contrib/109631219253781148105/photos\">Max Super Speciality Hospital, Saket</a>"], "height": 250, "width": 250}], "rating": 3.3, "geometry": {"location": {"lat": 28.5272301, "lng": 77.2114938}, "viewport": {"northeast": {"lat": 28.5291334802915, "lng": 77.2131114802915}, "southwest": {"lat": 28.52643551970849, "lng": 77.2104135197085}}}, "opening_hours": {"weekday_text": [], "open_now": false}, "types": ["hospital", "point_of_interest", "establishment"], "id": "57dbba6cde5f133e79d2bdfa166824ac90c57ac2", "name": "Max Super Speciality Hospital, Saket", "reference": "CmRRAAAAVAGS-EAZvQ-ecQP3AKXPt63eRxCxAvo6g7m0BMPmNhMfXDi5YoWmaLoUszEQet8VoWC5wE4Xs8EFb2T71uOi8QYQSN-Uu-RkAJzy108f_83ZXkL0YPGK_uphmM1d1PqhEhDX6cMtftfdL4usVwNZlzH8GhTwF6yAAqXZwsG2Htlxjlu0-0apHQ", "icon": "https://maps.gstatic.com/mapfiles/place_api/icons/doctor-71.png"}, {"place_id": "ChIJuwou2FDiDDkRPwPScVCoB5Y", "formatted_address": "Defence Colony, New Delhi, Delhi 110024, India", "geometry": {"location": {"lat": 28.5723323, "lng": 77.2316665}, "viewport": {"northeast": {"lat": 28.57368128029151, "lng": 77.23301548029151}, "southwest": {"lat": 28.5709833197085, "lng": 77.23031751970849}}}, "reference": "CmRSAAAARNtvz4t-s6nbSiivnX3IHx6JNHU8H1rxO10dmb8miOrXpY3U6rfDBkcctYh70mQI0IklQvbp_hcaUkXPU-cUPEKirSU2DvG3aLAl59_EoxWCkYG1TxHOG963nkbo97GLEhAdMowJLVlEWEmHgDmz0LWRGhSW-Z30MMCjYW5jx-q3-DLMjPAo4Q", "types": ["hospital", "point_of_interest", "establishment"], "id": "73eb6c63cf11d70deeeac559d53396286fad6b18", "name": "Hospital", "icon": "https://maps.gstatic.com/mapfiles/place_api/icons/doctor-71.png"}, {"place_id": "ChIJcy3HJKkEDTkRA4MeeE1flTA", "formatted_address": "Medofort Hospitals, A3/24, 3rd Floor, Janakpuri, New Delhi, Delhi 110058, India", "photos": [{"photo_reference": "CoQBdwAAAJOmegwDXeIASP8JqV_mvC-5id-jrXu-6qYtma6whsTF7xN4U8h0GmjSwmHvVBC15Y-crCgFd_vvqMRzNnAT1U3pH0BrHMVwXd2uaj1gQVzMhzAHhz4TUwUTfthqIsNEl7bD4Z1dRxVD2qe-rulk6u6NnSBvyH9EzeG8Wa8zUr3pEhB4xgN0vR9UpuET57YKSmOxGhRPt9jvtK_w5oGSuJvlskQ6QJ2j5g", "html_attributions": ["<a href=\"https://maps.google.com/maps/contrib/117963242232532739747/photos\">Maxivision Super Specialty Eye Hospitals</a>"], "height": 403, "width": 403}], "rating": 4, "geometry": {"location": {"lat": 28.6211102, "lng": 77.0809455}, "viewport": {"northeast": {"lat": 28.6224591802915, "lng": 77.08229448029151}, "southwest": {"lat": 28.6197612197085, "lng": 77.07959651970849}}}, "opening_hours": {"weekday_text": [], "open_now": false}, "types": ["hospital", "point_of_interest", "establishment"], "id": "d57c34297caf4a3e0c280e3ea8dd17518e6cc61f", "name": "Maxivision Super Specialty Eye Hospitals", "reference": "CmRRAAAA2j5pDnroDK55e0a0LQ4u9SmEZz5Whksu_MosDsRv06yT2y_gl1FN-OiCydZS-C81LuQwwXgaFQ4gSfWZrsrH-HwE1ilVmVOeRUCJY28LLExWY0V2tVYrWhQyOy4nP-eIEhCPSEIpBpNlHaLAvwdxlu84GhTRhL-WdW0XAmeaIwN58oietclBAw", "icon": "https://maps.gstatic.com/mapfiles/place_api/icons/doctor-71.png"}, {"place_id": "ChIJTxPULsXjDDkReSEOvR_FPww", "formatted_address": "C 30-31, Nehru Enclave C Block Kalkaji Rd, Block G, Block C, Kalkaji, New Delhi, Delhi 110019, India", "photos": [{"photo_reference": "CoQBdwAAAJMJsADHW05yT7XGfo7hYcqnADk2qi2X5CThfRqnFLo7-8VkExnulYnzsfKYxONvlXIrsiIzm3KvObSWAuVAprEOLzGIP5BQtBiy9nVdTd0eTL6Rx8zAouwGHHC_ce4kk1hyZkEQXRauDimE2O3Dqtb7_hS2EP3GwI62embJPhodEhDU7_Sitn8DfHwnC2g24wY-GhT3LMO15u4Ltq8sZVknQEOolIILVw", "html_attributions": ["<a href=\"https://maps.google.com/maps/contrib/114818085344436531064/photos\">Vishu Bhasin</a>"], "height": 960, "width": 1280}], "rating": 4.7, "geometry": {"location": {"lat": 28.54726399999999, "lng": 77.25471670000002}, "viewport": {"northeast": {"lat": 28.5485219802915, "lng": 77.25610778029152}, "southwest": {"lat": 28.54582401970849, "lng": 77.25340981970851}}}, "opening_hours": {"weekday_text": [], "open_now": true}, "types": ["hospital", "point_of_interest", "establishment"], "id": "7211dea38ccae0687ed1988bfc1c0ed0881036c6", "name": "TRITON HOSPITAL", "reference": "CmRRAAAA5mJEkzDaOeTVJKJCazPTy5qHtOcpk5e38fzmyDgtb6IH6gnrPfbtMYyShaWVJTFd0YPXkFbKvYuJn6EYgl71i2BylisV8V2U_t75r_JABrv_RimRPsV66DoLKL4FOfe4EhBzF2jGy5o9oPvsJI6ZA7U3GhRMKvlepBXaBdqcGCg8S0OhZMeYkQ", "icon": "https://maps.gstatic.com/mapfiles/place_api/icons/doctor-71.png"}, {"place_id": "ChIJiyDNCZDjDDkRdDNgQ6-jUA0", "formatted_address": "Opp B Block, New Friends Colony, New Delhi, Delhi 110065, India", "photos": [{"photo_reference": "CoQBdwAAAG-kfufxMfxdLC-UW_zhWZDpZDyg7qxqkp722f7hQhplH02OJgn7EqUvPJUmqPWMEKxfwdzhP36Cl0qxa6j94lC-fchdNnOtcKgOtE9zHlI0N3ohloI4QOvq0cPsh-mGG7fACxIeyP_nwyQ4u_2n81vi7gQbNUeQs8tybS-ZhLeMEhAZQWhQAyKnA13Pt4Uw8OvaGhT7bYk5dRQz6XT2TBoDqg_ncpqzzA", "html_attributions": ["<a href=\"https://maps.google.com/maps/contrib/113755624335672610101/photos\">Shoaib Ansari</a>"], "height": 480, "width": 640}], "rating": 3.4, "geometry": {"location": {"lat": 28.5713217, "lng": 77.2741884}, "viewport": {"northeast": {"lat": 28.5725447302915, "lng": 77.27559773029151}, "southwest": {"lat": 28.56984676970849, "lng": 77.2728997697085}}}, "opening_hours": {"weekday_text": [], "open_now": true}, "types": ["hospital", "point_of_interest", "establishment"], "id": "9024a6dcafa53e59260f52f3bb1a943956385e43", "name": "Lions Kidney Hospitals", "reference": "CmRRAAAAVtxSqsguC_L9uUgVmOztB7tDbzGZs8FrJacGYx3bFLcCy_lyp12gzkc2o_Mb-jhHeS4iM8qs-QqATSY2O8ehwiatTVQqbHycQtcb_oH6Aats8oookUhj98o8qvE6Q5gQEhBspaahDBQcRvapPzk2KozaGhRYqZn7SZusbiQCH2HDef7nhaadaQ", "icon": "https://maps.gstatic.com/mapfiles/place_api/icons/doctor-71.png"}, {"place_id": "ChIJ55au0AvlDDkRMrtxmSRlFb4", "formatted_address": "Panchdeep Bhawan C.I.G. Marg, Delhi, 110002, India", "rating": 5, "geometry": {"location": {"lat": 28.5936188, "lng": 77.3500557}, "viewport": {"northeast": {"lat": 28.5949677802915, "lng": 77.35140468029151}, "southwest": {"lat": 28.59226981970849, "lng": 77.34870671970849}}}, "reference": "CmRSAAAAic-5K2p976pd8xmIg5GCyAIrHUdqZMby0CsJWgXmZTfWYkka_ub7i_sAhSsNoeX0-YK_o00dmE6rJarjeNqfXovhDd1zv5UQA8cT9RBrH0ISx3jwY4EIA6dwErNaYigVEhBPjjFNBob0_oEiRx7FfkHGGhTeFU_0SIasGQAGN36iXe2ooAh7IQ", "types": ["hospital", "point_of_interest", "establishment"], "id": "bacdedecf6540936216b1bc10fc3a2ad0d68b154", "name": "ESIC Hospitals & Dispensaries", "icon": "https://maps.gstatic.com/mapfiles/place_api/icons/doctor-71.png"}, {"place_id": "ChIJdW1T923iDDkRhSx_6IV5EYo", "formatted_address": "C1/C, Green Park Ext, Green Park, New Delhi, Delhi 110016, India", "photos": [{"photo_reference": "CoQBdwAAAON_jLqrbZhsClwKkpoW59YM-0A2OzMnma2O8B-wGV4ZzWWrivKMyrwmXeD_Jvch-b-1uxA6iA_BbdEeOOVN-gH3sgNNDh2_ymubSQnIfvqYnuA2BmpjuOTVofyb8TOGFUXhRcf51Bhgrq1DlwKu0JeaijgOpahpKVCcmyuIKIAoEhCqMbW6-1kJgfC1sWAwcDfwGhSYhx1Wrs1eZExfuRReMKGXekW1Gw", "html_attributions": ["<a href=\"https://maps.google.com/maps/contrib/106721061341492180418/photos\">adivahealthcare</a>"], "height": 550, "width": 800}], "rating": 3.4, "geometry": {"location": {"lat": 28.5584551, "lng": 77.2064357}, "viewport": {"northeast": {"lat": 28.5598040802915, "lng": 77.20778468029151}, "southwest": {"lat": 28.5571061197085, "lng": 77.2050867197085}}}, "reference": "CmRSAAAAIX0aUUAxtjSKDYiMibG_Tn91ImVwEE60cZGg14LFphTChnCtCU5FnRbRbcsoqsdolhXPDig9zUnHnWO1Zz2ccH6cs4KXCsB2mN0pFHbbS7II9eHnHD6Kb6HFqCC2HMCiEhA1lLtM7nxCuoq5EQLBrKv-GhSaqHpu621lquzHbOqzO_blL22iGA", "types": ["hospital", "point_of_interest", "establishment"], "id": "17e93c71b9bd14ca2c8bd734d3229064f2106965", "name": "Adiva Hospital", "icon": "https://maps.gstatic.com/mapfiles/place_api/icons/doctor-71.png"}, {"place_id": "ChIJAQAAwAMbDTkRCXJKKA0zsT4", "formatted_address": "Plot No. 14, Sector 20, Dwarka, New Delhi, Delhi 110075, India", "photos": [{"photo_reference": "CoQBdwAAAAWB0JmQlLezV_a3X2Yp_TIYk0YrutFJl62vthleY_6PXWEOKHt-qo86ixVnIgvc6yEoe9J8FLeObEJ4BnyvS_Vogq584IQ0FqDCUnjL2iPL56Q6A0xbKnDKW-Raak0rzQ26du69J40u5y5yizFlz4i1kN1ZqDp7ot6y86MK6XrUEhBfnB6BEmu6E-FBZuft1oiMGhR6WAJguNCsHpiWi36YlpeIaA-W6w", "html_attributions": ["<a href=\"https://maps.google.com/maps/contrib/108720671632280552435/photos\">Rahul Vansh</a>"], "height": 3840, "width": 2160}], "rating": 3, "geometry": {"location": {"lat": 28.5698444, "lng": 77.0644081}, "viewport": {"northeast": {"lat": 28.5711933802915, "lng": 77.0657570802915}, "southwest": {"lat": 28.5684954197085, "lng": 77.0630591197085}}}, "opening_hours": {"weekday_text": [], "open_now": true}, "types": ["hospital", "point_of_interest", "establishment"], "id": "b4d86129530252ddbd42222bc9a690580c1814a3", "name": "Artemis Hospital", "reference": "CmRRAAAA2Xk7fwMOZMxGNDEYs-g6MOfNmNdowDJR6u_UAk15FtKYQbsdRM69_Tz2aSTvdeVcA4nT3bTDZONOG-n06vN0IBdMRZEaPz4flagl96aruRAMVa3mbTwf0yJE6UW78QmbEhCbfR80XvvC6fPo36UV1L7oGhSokLhBhiZ2-Pi27yjYbuBKjMeJ9Q", "icon": "https://maps.gstatic.com/mapfiles/place_api/icons/doctor-71.png"}, {"place_id": "ChIJa7KDmHniDDkR8qBR0_V_4PQ", "formatted_address": "25 AB, Community Centre, Safdarjung Enclave, New Delhi, Delhi 110029, India", "photos": [{"photo_reference": "CoQBdwAAABzPbODBLFXx9hvkmX5xkQpJ1wtxXvQ-pRaaKr9TrSF6JhAQg6WETEMTtFgKSU3-XOgQ_4Fmpb59VrLP0MncNV1tP2uRWl3LzlO4YJ0ZEAbExwBHqn4c1ILMfIPigHvTY3k218U48AUVbjdtGTOU1cMamZO3znFz7009iHrgcQhSEhA32Ko28BXoAbA41tZgg23PGhQZmctL6RtgYQjS75DIss2hosJmUA", "html_attributions": ["<a href=\"https://maps.google.com/maps/contrib/102034674716383662364/photos\">Vikas Gupta</a>"], "height": 2048, "width": 1152}], "rating": 4, "geometry": {"location": {"lat": 28.5665258, "lng": 77.1989791}, "viewport": {"northeast": {"lat": 28.5678747802915, "lng": 77.20032808029151}, "southwest": {"lat": 28.5651768197085, "lng": 77.19763011970849}}}, "opening_hours": {"weekday_text": [], "open_now": true}, "types": ["hospital", "point_of_interest", "establishment"], "id": "c3f45f634dc2a4d5d5e8639fe45bb54f5764cf1c", "name": "Aashlok Fortis Hospital", "reference": "CmRSAAAA57H2bQSynpJ-I18Lkv5l-pTt0NEAtu_NOtd4Op6as96g4BXl0L4iT3vAmWUApvKKfEM-fcic9Hv_IBi8wBOnRbzSxAlOsh2MBK08fkjyIACmfQAAcQ_jI5n8kmYD5uMmEhBlH7XMriPKuWQClMSKkF4eGhRIVayZsj0-des0_NeK0BTzGRpoag", "icon": "https://maps.gstatic.com/mapfiles/place_api/icons/doctor-71.png"}, {"place_id": "ChIJu5Wzn9_8DDkRLkPDXodiiX0", "formatted_address": "5027, Kedarnath Road, Beside Vani Prakashan, Daryaganj, New Delhi, Delhi 110002, India", "photos": [{"photo_reference": "CoQBdwAAAPG8FZ5YoBNa0WEebSCiP7266uhDXfqqkeSK3Z9g3UdTr0SuiEQcD5uw0kmtHbUeMU9BwWBn3qhlh49baTDNO8IyGS2T_KJbQvmY9sKCTKu2-NDtyn5J5F7AR_VKyr26HMQWhFv1wtBSVB7xpgF4EG51WfQTg4c0uS8ViNUBXceEEhD3r98jKltDq6D5UaN0gjOKGhQ-66twgUNlOVKuodAC6Lr0DKlamA", "html_attributions": ["<a href=\"https://maps.google.com/maps/contrib/110365702731489915727/photos\">Achintya Kumar</a>"], "height": 2340, "width": 4160}], "rating": 3.9, "geometry": {"location": {"lat": 28.64587299999999, "lng": 77.24201120000001}, "viewport": {"northeast": {"lat": 28.6472219802915, "lng": 77.2433601802915}, "southwest": {"lat": 28.64452401970849, "lng": 77.2406622197085}}}, "reference": "CmRRAAAA7ZuTzroaiAix9w7dgGVWPM41ObXMF4b8rAevD1064WrC7BdOTEYalkIfuxP4fVg7msfcCMc3D2efFih3AlB05M8yIMFfgGilmXG1bHnte3xqJV9ROPteaGEe4cBTGm9REhCJ0Dt1ydyjlQLDoOIf5ATXGhTa4QlQHkqzDIZAvvF9ikesKUifiQ", "types": ["hospital", "point_of_interest", "establishment"], "id": "6c4590cf12597da19f19ac5a467d5fba9fbd3a11", "name": "Dr Shroff Charity Eye Hospital", "icon": "https://maps.gstatic.com/mapfiles/place_api/icons/doctor-71.png"}, {"place_id": "ChIJz3GebiACDTkRtGjNGCZUlrA", "formatted_address": "A Block, Shalimar Bagh, Opposite Kela Godam, New Delhi, Delhi 110088, India", "photos": [{"photo_reference": "CoQBdwAAAGGPqwXsYbQ0AUezAm5al48X0-ndFmmioavzL5hue3qaFtL_PU9w3C0K521cMLtQRD3ycA48uP_DnEpj-XoY2HJpKMv1vmU0HlOPmXzZ5VKZmdoM-jAZb31URu_Qq_fZ9T5lC6weHljBmEEL22rYFEUEU773bL7IBRQWtYFMsnMVEhDJ4j57SCZhUrThgNpkAI_lGhTJjDBhpY7THwXvJuAUCDchoWJFAQ", "html_attributions": ["<a href=\"https://maps.google.com/maps/contrib/112835302189273622791/photos\">Gurvinder Singh Anand</a>"], "height": 2988, "width": 5312}], "rating": 3.9, "geometry": {"location": {"lat": 28.709163, "lng": 77.1702141}, "viewport": {"northeast": {"lat": 28.7105119802915, "lng": 77.1715630802915}, "southwest": {"lat": 28.7078140197085, "lng": 77.1688651197085}}}, "reference": "CmRSAAAA78BW2Lzt9r3KLIIEtgQQ92EvbjuhbaPAWwhRvsWxoo58uM0GGJSW0bqFCCSNUF1QuPwdlggEA3JLmeafgihdmHYlmnW3MbJ9yO5-M0E9Z5rVG4yFozPrIM2nkndXjYl8EhACzAUm6j9KvD1IZfcLvVJ3GhQEhXf7fxJxP79o6gkTICNNpro93A", "types": ["hospital", "point_of_interest", "establishment"], "id": "b2fc1649ca92620d880f80d591e5cb68356244a5", "name": "Fortis Hospital", "icon": "https://maps.gstatic.com/mapfiles/place_api/icons/doctor-71.png"}, {"place_id": "ChIJi1GmoWoBDTkR4Y8z3JSF1mk", "formatted_address": "Opp HP Petrol Pump, Sector 15A, Rohini, New Delhi, Delhi, India", "photos": [{"photo_reference": "CoQBdwAAAKzEuXE8_FLVu8XMg-6Kilcw5X_2z62DImNOdtHQXT0HmAPnVv78cltdPXBdgFhT8zHODWy4_n9Rvkie6BmOuVjUwZBylB6i2UUjM97XNFrsEK_MIRhbPZeWe8hYoZ3vAxOvY29ZMqi8h4ZIOZdxsXukBsqEFKO19dsaf5nNAbTQEhDFSFUfzlhI2ffpjQ_n8jKaGhS3REI9YLLAhEKSV8E1m4bv_U1Bbg", "html_attributions": ["<a href=\"https://maps.google.com/maps/contrib/100790961062408944005/photos\">Harmindersingh prihar</a>"], "height": 1872, "width": 3328}], "rating": 3.9, "geometry": {"location": {"lat": 28.7279373, "lng": 77.12590999999999}, "viewport": {"northeast": {"lat": 28.7292862802915, "lng": 77.1272589802915}, "southwest": {"lat": 28.7265883197085, "lng": 77.1245610197085}}}, "reference": "CmRRAAAAxKYX6YfkYQXRcJs3b4a5pqAw2kP_EhLdL3ciyRVS6SESOZanZrigWqlAme1M7432VILIYCoPFcahSaj11rGfd4vkbOaIdUni2ncEZbIFujLS2EsTSJg8Cc4VWf1_pMSIEhAyfD6lbrsD93rmKchfHdx4GhSO7LNRCtkBgxHEbPYRK2JePXIipQ", "types": ["hospital", "point_of_interest", "establishment"], "id": "e9b671a5459c07e0b96fe4ceb08d2fda8bdc72bb", "name": "ESI Hospital", "icon": "https://maps.gstatic.com/mapfiles/place_api/icons/doctor-71.png"}, {"place_id": "ChIJuROYiikCDTkRS6ZKN4cZl5M", "formatted_address": "BP - Block, Shalimar Bagh West, Delhi, 110088, India", "rating": 4.3, "geometry": {"location": {"lat": 28.7077442, "lng": 77.1544132}, "viewport": {"northeast": {"lat": 28.70909318029149, "lng": 77.1557621802915}, "southwest": {"lat": 28.7063952197085, "lng": 77.1530642197085}}}, "reference": "CmRSAAAAhc-2RZRE4XeUJj_sSzrXDaNan9Su2zORR5ILToxwqxXyICNXzL0cY-f_O-MTMzBR-I7Se2ofMa_cGH3Z2dIWyWbCJeMDrl7DUzFZyEI_FYTb7FCjnTRG5JzkbOEHbynZEhBJ6gs1zxNy_4gnC_EwXATbGhS5mFt1lrRcT9t5yOt0F2fSAKh31Q", "types": ["hospital", "health", "point_of_interest", "establishment"], "id": "a832e5916564990f2b7bdec0d22e25960258f8d7", "name": "Maharishi Ayurveda Hospital", "icon": "https://maps.gstatic.com/mapfiles/place_api/icons/doctor-71.png"}, {"place_id": "ChIJ3akbXiMeDTkRh-sRRAgdqdY", "formatted_address": "Main Chhatarpur Rd, Chhattarpur, New Delhi, Delhi 110030, India", "photos": [{"photo_reference": "CoQBdwAAANZ44YOdQW0LlsHy-RvXV-ZLH2BOpt5W5ZOM1zZPUV5dgV7pC5D1r-uzuuUZbNudjgIAxZAEZwIvki2GJ3kFnK172iZLDVKBZVx6GSuRg1cI2EOTzgaWTPd8-4UMmG6t1U0yXb5LWADJoOj8B6rEFX4CEu6qr8Zcrns_5EtfDuJ-EhBhk4xp0v2zTA2Rzv4qfef2GhQdtS1sbc3whumGQ0pgsRZhwTxUBg", "html_attributions": ["<a href=\"https://maps.google.com/maps/contrib/103377482418457465896/photos\">Garima Singh</a>"], "height": 774, "width": 1032}], "rating": 3.2, "geometry": {"location": {"lat": 28.500158, "lng": 77.18439699999999}, "viewport": {"northeast": {"lat": 28.5014610302915, "lng": 77.1856917802915}, "southwest": {"lat": 28.4987630697085, "lng": 77.18299381970849}}}, "opening_hours": {"weekday_text": [], "open_now": true}, "types": ["hospital", "point_of_interest", "establishment"], "id": "8b233972279671596bb57aaa804956b04f270ebc", "name": "Apex Hospital", "reference": "CmRSAAAA6TROVLqG07TAICxywqJ5ix2tNMzfkHPQmoq8uSGZDaaWKI9TVTa_hJAmXNgkjPc3j7Sy6K-jaQGaprWmIdfSpFGlZq5bj6dfVz7oSV7TDcmEIwyFZRizPFrqwMuuHQvpEhD5AfDzuBmlWhnngJb7TllrGhQJXBv3j9Bxdy04y7vCOlF3a_hUOA", "icon": "https://maps.gstatic.com/mapfiles/place_api/icons/doctor-71.png"}]}