{"status": "OK", "html_attributions": [], "next_page_token": "CoQC8wAAAEjf79c5aPF5Z7wKyW8aMpvqhRqROLBA1FxfZ0rUU4VJo7P2qfg80yobQpYHTMm5zK9MtdNG9F37Rh4nMUThbt-1NWK9KLy7gnaz5Ak2qlBdoECW506eOn17PBWgJB-yX8wUPBdwkGP67Pee3sqfajDp9dHVYJxEE75rHumB7odZ5ZkRG8aB34fw9N0aNJVSRRI_RKlaXBAuCn7_GOTcdDnp0yIrWJx2-JXhh1uMvUcJfHQvRHgVVjkVccHQt4j9RqWsSncCZRS1MeS5RJWQftXOpH8FR4RvbbuuT_T4RFV5zJyk58ZtD_Z4lAEKImfMFiDFo1ZyMhUzOFJFLGoVtgsSEHDg8nBBZdGnR6_1h-s0y2MaFM3r5FaATCmSCT03nPZJY_jzewSG", "results": [{"place_id": "ChIJlZFUr81mEjkRLO6X5jL_n24", "formatted_address": "M.C.Colony, Bhiwani, Haryana 127021, India", "photos": [{"photo_reference": "CoQBdwAAAKBIqC0fZyFjykG-f-JaJyD9z3BKfY_-enetj0xVs1Hb2j3jPms6pJ84C-nF2Wu624oyOUr3BzTqGAtQ5C1UEEP1MtBEclAF0xjkzRaPp3k9-wnChWSd0dHSm54nA6h0WoE0tLxcGPTq1TV7VrWs3xEy4o8UVU4he2eAQodlQQeSEhCkGRIKoTYU7NkVPzmJ-pUPGhSsHRitjePYybcke14uDUBszaMBOA", "html_attributions": ["<a href=\"https://maps.google.com/maps/contrib/116384545701412340477/photos\">Rakesh Kumar</a>"], "height": 720, "width": 1280}], "rating": 4.8, "geometry": {"location": {"lat": 28.7944073, "lng": 76.1457843}, "viewport": {"northeast": {"lat": 28.7957562802915, "lng": 76.1471332802915}, "southwest": {"lat": 28.7930583197085, "lng": 76.14443531970849}}}, "reference": "CmRRAAAAghoAF7WmB8Vo5BQBp3JaFQYkGH0iabsadjVT1arf7iUnUYZU3XCX7bzaFah2EqLwcwtWB8Shc4-mWpo1kLQAvWOync1EtdQSt5nUJtOIgDdekbv0risoBVz54u9Rx_LeEhDj79foSAPWa7qZSXKMyZKzGhTgiw6qswNXG2oTj0Mq9x74eBh1EA", "types": ["hospital", "point_of_interest", "establishment"], "id": "80753d0ad05efa0f70341a3f5a8682ee46db8752", "name": "Eye Q: EYE HOSPITAL", "icon": "https://maps.gstatic.com/mapfiles/place_api/icons/doctor-71.png"}, {"place_id": "ChIJwfm_x9pmEjkRu3XG1cWho9M", "formatted_address": "Opp. District Courts, HUDA City Centre Road, Near Old Housing Board,, Bhiwani, Haryana 127021, India", "rating": 3.7, "geometry": {"location": {"lat": 28.8038149, "lng": 76.1427751}, "viewport": {"northeast": {"lat": 28.8051638802915, "lng": 76.1441240802915}, "southwest": {"lat": 28.8024659197085, "lng": 76.1414261197085}}}, "opening_hours": {"weekday_text": [], "open_now": true}, "types": ["hospital", "point_of_interest", "establishment"], "id": "e65cd4f7ea479ced3a17268c59b4c4e51891eb8c", "name": "Singla Multispeciality Hospital", "reference": "CmRSAAAAzFBVQZ40tpPdCOwbCjktIN7B5hdJg4BJjAjVKmdagIA2DMs43SDDuWbYq1cUo0yMBT6yo_Jv1JvB-nnOk1FP09R1AHtlFjPwkorM4IAR61ifv5fn6q9rojRN_NoaaX3yEhBbQySAnB-yqnqokUPWCceZGhTIp6Jv8AEO9BOrBIHup1GxeoCksA", "icon": "https://maps.gstatic.com/mapfiles/place_api/icons/doctor-71.png"}, {"place_id": "ChIJE4UkI85mEjkRWm3--Rrkres", "formatted_address": "Jalan Nagar, M.C.Colony, Bhiwani, Haryana 127021, India", "photos": [{"photo_reference": "CoQBdwAAAIX5sBP8U6eeYYGQNybFNydYNnuZObsB9ukFNokhmZui2-_AI47U5pzfejsewDoxsFqz9iz1lET9-XIq-2qW859tuhIB7OngszXQsbbEzsM2zeO6xNDndiT7YcO07DEk7EcQ9YVXr0JpLTSb9VlEKDdJbGsBkdPxi7QcNf67pB_BEhDnK-2co_CAbGkItKWq-wtOGhSBxcVFV6aEdZ00Mt5lSMrXZ3h2jQ", "html_attributions": ["<a href=\"https://maps.google.com/maps/contrib/100115563448122608367/photos\">Kuldeep Chahal</a>"], "height": 4608, "width": 3456}], "geometry": {"location": {"lat": 28.7983802, "lng": 76.1442507}, "viewport": {"northeast": {"lat": 28.7997291802915, "lng": 76.14559968029151}, "southwest": {"lat": 28.7970312197085, "lng": 76.1429017197085}}}, "opening_hours": {"weekday_text": [], "open_now": false}, "types": ["hospital", "point_of_interest", "establishment"], "id": "378487376984a6661ee150eb94e56579f3360485", "name": "Dhir Hospital", "reference": "CmRSAAAAd69ShMZnpVFjqJQOs6XugcZVYZjFLjtV_KTBZTSp0EbEw-E7cMbfeIrh3JSwD89Cxh4nbhNhJzWY-_O5vVhx9hToWgJu8FS0Y0MHpqe926rnjdFSd30BjFoCBHGa7yb5EhDZxKzXboj-R2hejJHUXBpWGhRQ9x_nnpCPBt-C4EJGd25-oE_wLg", "icon": "https://maps.gstatic.com/mapfiles/place_api/icons/doctor-71.png"}, {"place_id": "ChIJgynPt9dmEjkRxurx0-LLLws", "formatted_address": "Meham Chowk,Circular Road, Bhiwani, Haryana 127021, India", "rating": 5, "geometry": {"location": {"lat": 28.7990445, "lng": 76.1335113}, "viewport": {"northeast": {"lat": 28.8003934802915, "lng": 76.1348602802915}, "southwest": {"lat": 28.7976955197085, "lng": 76.13216231970848}}}, "reference": "CmRRAAAAsQ3god3S0d9vTsuxdcI6rT-WrMWLfkySlrCY1u228vi_jQQHFc-oCwXhZU83lNlCjBSTyH_efn7xCErSptywJs8hm5qkCdOvl4ompaBoHo29pES9-f84M_JSHP0dDRt9EhDvxVsUGqbbwMbwZ3rV9EJdGhTrlhUcAW-r0t8VfvyBEPs3j-7EHQ", "types": ["hospital", "point_of_interest", "establishment"], "id": "61358db52a373e850639690f850c7a2494e69b98", "name": "Dhir Hospital", "icon": "https://maps.gstatic.com/mapfiles/place_api/icons/doctor-71.png"}, {"place_id": "ChIJV51voNNgEjkRklSVNEDvRk8", "formatted_address": "Dadri, Bhiwani, Haryana 127021, India", "photos": [{"photo_reference": "CoQBdwAAAE6EqJVAdq7nsKNRH4HiPgzQrKjso4RnQlwwwqdZFZFbIC9Gi_faeMvC6sPs-G-nDCHMxU-7mSHMfztF8ZOFr4CU4EhGlDNV0CP8weHi6SWmKPt9fov8e_55R6Ob_6ePYgcqBXpM1kQV5BWBBwTZHHDACSS1kwFPwH2G33q2WpBHEhDdyCdsexquEOutFuic5euIGhROP3w8Ryzp7ycV01W4auNn31XGdg", "html_attributions": ["<a href=\"https://maps.google.com/maps/contrib/104527118381570365527/photos\">Devender Bohra</a>"], "height": 2020, "width": 3684}], "rating": 4.3, "geometry": {"location": {"lat": 28.7860701, "lng": 76.12461429999999}, "viewport": {"northeast": {"lat": 28.7874190802915, "lng": 76.1259632802915}, "southwest": {"lat": 28.7847211197085, "lng": 76.12326531970848}}}, "reference": "CmRRAAAAEUQvINnMLKxcb60QiL0jb3TgYzc4JoUkfDoVLqxvKLsA-lmC28mCztYMb-4gXP9TglfhrSm7YykZgtYwYYm8uPZfEk76jDCF9saHkDuqv8P1qBIvyBBrZXpiR4E4bT7OEhAiGObqrYwnxK_OjKR5fv_3GhSdR_U9khWcoE_dvqfH27jt6ukYYg", "types": ["hospital", "point_of_interest", "establishment"], "id": "cf12fca6c661dcbf48f937fcb99a80b5081ccb75", "name": "Bohra Hospital", "icon": "https://maps.gstatic.com/mapfiles/place_api/icons/doctor-71.png"}, {"place_id": "ChIJZxz45QpkEjkRRipNWns90E8", "formatted_address": "State HIghway 16, Bhiwani, Haryana, India", "rating": 3, "geometry": {"location": {"lat": 28.7989617, "lng": 76.1997013}, "viewport": {"northeast": {"lat": 28.8003106802915, "lng": 76.20105028029151}, "southwest": {"lat": 28.7976127197085, "lng": 76.19835231970849}}}, "reference": "CmRRAAAA0zv7u87A1TpOGskFP76AddOaWgR6IqRFPdK5lTxwXJomXu72Ptl_i2FKL5UJxyxO0iZSikpypndfLlaqfJEJ00Js3uz72TsKy1x_ONM7yyo730g2hpL0OZlDmi2pchQIEhBkin0mnbgoqub6Ub7vZck6GhSProqkUlNWTXBkIENNeX0l0BHnvg", "types": ["hospital", "point_of_interest", "establishment"], "id": "bc28a72d0cb461047a033b29d3599827de15bee4", "name": "MK Hospital", "icon": "https://maps.gstatic.com/mapfiles/place_api/icons/doctor-71.png"}, {"place_id": "ChIJbWbag9VmEjkRGSHzgXerydc", "formatted_address": "Bhiwani, Haryana 125021, India", "rating": 5, "geometry": {"location": {"lat": 28.7928747, "lng": 76.1323893}, "viewport": {"northeast": {"lat": 28.79422368029149, "lng": 76.1337382802915}, "southwest": {"lat": 28.7915257197085, "lng": 76.13104031970849}}}, "reference": "CmRSAAAAWnZmO-PgVK6zoLRDtkWpDrLq7hscp3dtoYOw6d8WoSPfuqt0a-XuiGYNoGdmXC-7L_iq-TACNRS2wDMUPkWRu_QZfFvkA6grAQkjhyfIfdig-9ITqeODMemtc_s-T74eEhDTQnGjJfCAKoReiyd9x1AuGhRAtVTlXS8d6KlCgtQgegbClKyf7w", "types": ["hospital", "point_of_interest", "establishment"], "id": "e25d15ebc4d008e9e99cd52d681e6d7a4dfc0878", "name": "Bhisham Hospital", "icon": "https://maps.gstatic.com/mapfiles/place_api/icons/doctor-71.png"}, {"place_id": "ChIJHUwl1jJhEjkRQCIsd0bhb8A", "formatted_address": "M.C.Colony, Bhiwani, Haryana 127021, India", "photos": [{"photo_reference": "CoQBdwAAAN58vwX4MoGQFZqg_5uEJl9NgF-4Mzq2whSjWhpmMEOD12HcYfhpU4Yf1lHPZgLOnq03WD2g1PVlamGYHJAHWLlLuCMLOJ0O3XTYMPJkc38F44goPu7z2QheqVqyqpARwNg3DoxbAn9qfd9jYDVwTuL7IBo5zulg_9kugYSuC57DEhCEO4oxrjXrOyPqIvPF0jW5GhTr_NM2k6glqDv_SZyAzRhiVNyg7g", "html_attributions": ["<a href=\"https://maps.google.com/maps/contrib/117538283534138316563/photos\">M K</a>"], "height": 4160, "width": 3120}], "rating": 1, "geometry": {"location": {"lat": 28.79076880000001, "lng": 76.1464464}, "viewport": {"northeast": {"lat": 28.79211778029151, "lng": 76.14779538029151}, "southwest": {"lat": 28.78941981970851, "lng": 76.1450974197085}}}, "opening_hours": {"weekday_text": [], "open_now": true}, "types": ["hospital", "point_of_interest", "establishment"], "id": "57a457017d80cf04b44de43b365befddf454efff", "name": "YADAV HOSPITAL", "reference": "CmRSAAAAVcz6bE2rGUT9xW6e-dfWcI0Qe5bxJShZiMs_0ExYyzx0uAbb26S0Yh-4OyX7uRf-BWqIKAHJ5H3KqBEQgcMT-IZwl5P42v21pPffqiINiylRn845Ux6t_3UWFXVharJHEhALQtEsWAEwN33L_XjoAeEvGhTQJm7BlYTyi__2wjHbZcYZItcDFw", "icon": "https://maps.gstatic.com/mapfiles/place_api/icons/doctor-71.png"}, {"place_id": "ChIJMy2HnyBnEjkRXTliim3vrfs", "formatted_address": "Housing Board Colony, Bhiwani, Haryana 127021, India", "photos": [{"photo_reference": "CoQBdwAAAOjxgcQPucNyFf6wjetC6bfZYSmQqr_KeYm2ss6MZemICVI5J3JTPVRPSTHJPjgHT1Yk_dSEXEqGrOaUtf4JNXyCuOsaXxjs1XP9kzP9jmRjeIC-jW8gOTqVLNa3tcZLOoajQS4GOM9W2u8CDlBFH0ukNh-Q1UajebDp0-q54Gx1EhBTKxHBddFwee_QxPP0cd_oGhRVSyR2utvF0ddJUcGna0oZpZMqlQ", "html_attributions": ["<a href=\"https://maps.google.com/maps/contrib/102414205407967807062/photos\">Amit Chauhan</a>"], "height": 4608, "width": 3456}], "rating": 3.3, "geometry": {"location": {"lat": 28.8082119, "lng": 76.13190469999999}, "viewport": {"northeast": {"lat": 28.8095608802915, "lng": 76.1332536802915}, "southwest": {"lat": 28.8068629197085, "lng": 76.13055571970848}}}, "reference": "CmRSAAAAj0W6Fv7Pl9as6IzikgL6za80Bp2iIDwJmYPLr9Lm-5M4mlAUhuvnX_Se9DbW5xk28S0Y_oFPSA0Ca7Z-LPuBsmW8ZpgGGWyy2VPRUJLBkZGrcWVmdK-JuAoqtBsB_TEEEhCYkjEkCi5x72RuM7kZk6FkGhTX448zUHQxLwg1eNApJKdf0ODdyA", "types": ["hospital", "point_of_interest", "establishment"], "id": "5251d5c57f978f1050b55f787d557bd1b8a7b176", "name": "ESI Hospital", "icon": "https://maps.gstatic.com/mapfiles/place_api/icons/doctor-71.png"}, {"place_id": "ChIJtxA4g85mEjkRCys5Xyz0C0I", "formatted_address": "Sub Way, Vikas Nagar, Bhiwani, Haryana 127021, India", "rating": 4, "geometry": {"location": {"lat": 28.7973055, "lng": 76.14716659999999}, "viewport": {"northeast": {"lat": 28.7986306802915, "lng": 76.14851733029151}, "southwest": {"lat": 28.7959327197085, "lng": 76.14581936970849}}}, "reference": "CmRRAAAAnSMXTk-MzI1eJiOzYBpE7OSAxCmauJ2K-BP1o_qZewYxXn_y-ndPlSE07wVIgsCRqkbRUzG-_-tJqgzNZEVJ7LkVwVjiv025SYk9xImA-UtNyJNX7-wV9kUePNpayKcYEhBzCKGiS6PnovG9tSSkaw1kGhRzA168myuc6VHabRkgwClt2dtONg", "types": ["hospital", "point_of_interest", "establishment"], "id": "f665976d5b886c5e621d5ff7735e1e10671727b9", "name": "Pahwa Skin Hospital", "icon": "https://maps.gstatic.com/mapfiles/place_api/icons/doctor-71.png"}, {"place_id": "ChIJSZC2wClnEjkRoGSBiUaynDo", "formatted_address": "Ghanta Ghar Chowk, Bhiwani, Haryana 127021, India", "photos": [{"photo_reference": "CoQBdwAAANab14m44fp8lSp_8Wg4JHLPX6EJfcjwZsWwVgbZ_kuu7UU1R3GHUN-5j1wHTwvFCQL-BfcYBYyzfsrS1w3fx5jO9k1TblwX0njCuG0v0MVK1vFxMiV1QHSZAOkEGna-ltlpzrwSsyHN3CsUMnBloEqUlohZ7QVWIIFOzWySLPfnEhBILrol3Rsf2119Ghpy4NIFGhSRdJMWEBjTt0CaVGboP0CZPp1jeg", "html_attributions": ["<a href=\"https://maps.google.com/maps/contrib/108955762660717051247/photos\">Sachin Sharma</a>"], "height": 4160, "width": 3120}], "rating": 4.2, "geometry": {"location": {"lat": 28.79722799999999, "lng": 76.130811}, "viewport": {"northeast": {"lat": 28.79857698029149, "lng": 76.1321599802915}, "southwest": {"lat": 28.79587901970849, "lng": 76.1294620197085}}}, "opening_hours": {"weekday_text": [], "open_now": false}, "types": ["hospital", "point_of_interest", "establishment"], "id": "c7d7cb74e837672b74c1796f415779b8c91ac42b", "name": "Government Hospital", "reference": "CmRRAAAAHXWPIwOK2WoaPRxETS0L3_vr8jA5NmK49DsDsKm0rRbaE42E19DNl5qH5vqx-D66B8BhlKrvBkm1R-FI8IumogciHNTjSzshhMHkjviL89radft2RKurwFEBS93OOZFuEhDZIYB_DmotmpJIka1FOCwoGhT8Bs_gatTaQQsJuCt-bPMcbh7-ig", "icon": "https://maps.gstatic.com/mapfiles/place_api/icons/doctor-71.png"}, {"place_id": "ChIJ__8_8MBmEjkRvVHiG3Ir528", "formatted_address": "PWD Bhiwani Water Treatment Plant, Meham Road, SH 16A, Vidya Nagar, Bhiwani, Haryana 127021, India", "geometry": {"location": {"lat": 28.8113123, "lng": 76.15310319999999}, "viewport": {"northeast": {"lat": 28.81244423029149, "lng": 76.1548236302915}, "southwest": {"lat": 28.80974626970849, "lng": 76.15212566970848}}}, "opening_hours": {"weekday_text": [], "open_now": true}, "types": ["hospital", "point_of_interest", "establishment"], "id": "9c08de2bfb4923e2d41fc698725b021a0c972485", "name": "Dhamija Hospital", "reference": "CmRRAAAAG5LkId8XstvJ4iqoBdoOegY587Nj1MDy6EZ23GM791lljJsBnSz_Ou2cG7xtu4qcP--_EfF1b_JMdG-0CyblSu8N3CzgB8Fmoz0ukXN9sYI4SY3JUaDTl9gafDX6kiYPEhCVlCZbb2VNKwtZ9qq1CTYLGhR0ejTQ_97TDmLo37ouo6mm__54Nw", "icon": "https://maps.gstatic.com/mapfiles/place_api/icons/doctor-71.png"}, {"place_id": "ChIJtRuiiipnEjkRKe5BE9bV84U", "formatted_address": "Dinod Gate circular Road, Bhiwani, Haryana 127021, India", "photos": [{"photo_reference": "CoQBdwAAAAy9fL6NcUHlrhl8W1TsD43dROE_lhsfKSkWou1vR23WPoNs1Nn9y_qXs_7UQFmpvXZvcM7bJMyi4dpW7qsg3ojL-HI-ey0QRNCDcXOptITjIbaUquY1yfFk6VfM9LmMV_RBCS0ZKxrJPpgd9SanWg2ongl5hnajLFPrFz8JTkRfEhBUaJW70RjKyLPxAv6ziPxdGhSpl_V6JLNY0SCrOGKRKLohAFUDcw", "html_attributions": ["<a href=\"https://maps.google.com/maps/contrib/117538283534138316563/photos\">M K</a>"], "height": 3120, "width": 4160}], "rating": 3.4, "geometry": {"location": {"lat": 28.7920667, "lng": 76.1306227}, "viewport": {"northeast": {"lat": 28.7934156802915, "lng": 76.1319716802915}, "southwest": {"lat": 28.7907177197085, "lng": 76.1292737197085}}}, "opening_hours": {"weekday_text": [], "open_now": true}, "types": ["hospital", "point_of_interest", "establishment"], "id": "8322f2a3af027983876f7d1858ad17b17c49b41b", "name": "Anchal Maternity And Nursing Home", "reference": "CmRSAAAAvBbqO1Kns4yCXELuaQ-qdsnTr64ZMgoVEX-Sk_7S5utBKi36VSuS8i3a9e-4dWggoAVYS_4EI5OmDSe1gInXgCZNgCBYFk7be7y0FnYsCVojAHFkFH4xk82nIzDdXNSKEhC5RTGbUmAf9ZqYfnDTnQ2iGhSs9bfaiKqagYB3X8R-OZbVLzg5jA", "icon": "https://maps.gstatic.com/mapfiles/place_api/icons/doctor-71.png"}, {"place_id": "ChIJMzMqM9BmEjkRahrRwMe2Aj8", "formatted_address": "Near Old Bus Stand,circular road, Old Bus Stand Rd, New Bazaar, Bound Kalan, Krishna Colony, Bhiwani, Haryana 127021, India", "geometry": {"location": {"lat": 28.7994482, "lng": 76.1426742}, "viewport": {"northeast": {"lat": 28.8007971802915, "lng": 76.14402318029151}, "southwest": {"lat": 28.7980992197085, "lng": 76.1413252197085}}}, "opening_hours": {"weekday_text": [], "open_now": true}, "types": ["hospital", "point_of_interest", "establishment"], "id": "12f889e84857a2e349cca0e2bef6514b2d07225e", "name": "Goel nursing home", "reference": "CmRRAAAA94Ywv2kB0jEcPlYmQ-kUazsNt9mZnaCTR-KygMxyHlRMzoSI3e0MGjjheh5Raxmk53r8EY8OjkqjyKfUBx7ndp-mq9e0Eh3flQ-p9RNITEnzWENMasN8CTKuLI6QAG1_EhDxjEyKhaOwCEukO8ei0hpNGhRMPUWIvsjtTnJIi_ZK_66Ny1LKwA", "icon": "https://maps.gstatic.com/mapfiles/place_api/icons/doctor-71.png"}, {"place_id": "ChIJ5ctB2dBmEjkRo4rZzPCYXXE", "formatted_address": "30 opposite, Old Bus Stand Rd, Bound Kalan, Krishna Colony, Bhiwani, Haryana 127021, India", "geometry": {"location": {"lat": 28.7993056, "lng": 76.1387945}, "viewport": {"northeast": {"lat": 28.8006413302915, "lng": 76.14017608029151}, "southwest": {"lat": 28.7979433697085, "lng": 76.13747811970849}}}, "reference": "CmRRAAAAw4EMLqgHfbhAB3P-gUzp_kakzus1AiSOiVIRfhxLpw6SnidcqznL6XEoZfFwri-_bdHbgxrF5MjqWeCVIqHMc3ScVwNoIMiCPC-4gf25_HqZnLSXZ8lJvHXbSDmjd9JmEhDhaNOM9DvFy8pW2UcTt2toGhQOHqHHSfMZPivBdLhvVnBi-aa6kQ", "types": ["hospital", "point_of_interest", "establishment"], "id": "02f99385ee15c5f6325f57164a083ce2a4582adc", "name": "Sharma Hospital, Dr.B.N.Sharma", "icon": "https://maps.gstatic.com/mapfiles/place_api/icons/doctor-71.png"}, {"place_id": "ChIJfw6WddVgEjkRK-IgyUfLZwY", "formatted_address": "Shiv Nagar Colony, Bhagganpuri, Bhiwani, Haryana 127021, India", "rating": 4.7, "geometry": {"location": {"lat": 28.7868549, "lng": 76.1307927}, "viewport": {"northeast": {"lat": 28.7882038802915, "lng": 76.1321416802915}, "southwest": {"lat": 28.7855059197085, "lng": 76.12944371970849}}}, "reference": "CmRRAAAAC7eUl6aG5VwwaqY-b2J1qzL9poH1J6wdr8QK7jxaO1EbITH8xBUib2LSFUDLMOkyuOX-e9R6yELDelOP0ffy-EhZM-FN2sW-HYBeuKdRsTNlw-8v4R6BZL1QeI4oNepeEhD-Ez44XoktWe9ujgWwFN93GhSvi4ZxgONKcDwGvY7fwIKVXQ_84g", "types": ["hospital", "point_of_interest", "establishment"], "id": "54abf7b07da30a999774f812a526775b2c0f1cdc", "name": "Bhiwani Heart Hospital", "icon": "https://maps.gstatic.com/mapfiles/place_api/icons/doctor-71.png"}, {"place_id": "ChIJA6u3L9BmEjkR0xrw4Gc-ud8", "formatted_address": "Meham Gate, Circular Road, Chiriya Ghar Mor, Bhiwani, Haryana 127021, India", "photos": [{"photo_reference": "CoQBdwAAAPJClsyIEGP6dR_spQ2IYtNkzsarKZlK81ZsFnUPh5O6k2XYzY6wPMY564wKfWmNcew1whHIxPm1oDd9YywJ4IKXVHg9I3vN5mthANo5rO4XJuTNuLZupW_YBVxwDL7iJqrSQAsVX_d0cBuHkGzgt21ei7EogNFe1M4zAhr1GfPhEhBQBwv5ZfQjKqKpN2cofyL4GhQYJel6J6iYKCjrswt5MtBHQKbeyA", "html_attributions": ["<a href=\"https://maps.google.com/maps/contrib/118081124276001168814/photos\">manoj kumar</a>"], "height": 4160, "width": 3120}], "rating": 4.1, "geometry": {"location": {"lat": 28.8001624, "lng": 76.1426125}, "viewport": {"northeast": {"lat": 28.8015113802915, "lng": 76.1439614802915}, "southwest": {"lat": 28.79881341970851, "lng": 76.14126351970849}}}, "reference": "CmRSAAAAu9PDtaou8ajZFcThammH5R4GDLRiSsWXt2zXiVQyJ_wWvyRyB6_p51dPIhFov5jSyDz9GGDqx4pl_S6qkjJ8O2UNb6hbhUq6YcKMGFnqI1RaCkGs7ng46hWCsufEUE8BEhDzC6Ho83x4wi8FKf_VeFuKGhRKU2OD7n9n_jwSmCio2P6_G4-I-g", "types": ["hospital", "point_of_interest", "establishment"], "id": "966913206832413abad0a1745c881db458b14f5f", "name": "J B Gupta Hospital", "icon": "https://maps.gstatic.com/mapfiles/place_api/icons/doctor-71.png"}, {"place_id": "ChIJme7pXcpmEjkRYlGdNigYh5A", "formatted_address": "Bhiwani-Rohtak Rd, Industrial Area, Bhiwani, Haryana 127021, India", "photos": [{"photo_reference": "CoQBdwAAAL5TzopxCPsEUnQinezLFStuavwKgViJTvzcYqr-jMzGRYS5ZPdf5Gu3_Mccxq8msMvnbDxTMffdMckTDCZlNK6yy8EP7SjsjyKG7S1oq5PobV0XwVFG2eNkQ4iI-ZsjU7498Zj_rXchCIcrBpga2H1-rNSOig4YcKDV_vQZqe_8EhA5jvoSVthFLhqhAxzf70F7GhQUdGYj4JcS2kJUT5jNLp0cj6jQ7Q", "html_attributions": ["<a href=\"https://maps.google.com/maps/contrib/116426417994850682213/photos\">Deepak Jangra</a>"], "height": 4608, "width": 3456}], "rating": 3.5, "geometry": {"location": {"lat": 28.7952811, "lng": 76.1536508}, "viewport": {"northeast": {"lat": 28.7967197802915, "lng": 76.1549877802915}, "southwest": {"lat": 28.7940218197085, "lng": 76.1522898197085}}}, "opening_hours": {"weekday_text": [], "open_now": true}, "types": ["hospital", "point_of_interest", "establishment"], "id": "dd51cb43d75a5827e413c5779b5f2cfa27025950", "name": "Panwar Hospital", "reference": "CmRSAAAA2FQyJxdViMFd3inNmTqlTtG6NMW8hJEX0r1CUdWA5YDDIj-jzaWHa474Im1-3T9rn2qHVXJKQ1budb7277t3IwQwF6zTvlWeFsYdEpVZp__EWG-ajLSUWmgKj-sA5rkKEhCSTBAQdlV0BpOAxQl0SK-iGhR6IbEpF7xtL5wHaW8zERVOGTOb4A", "icon": "https://maps.gstatic.com/mapfiles/place_api/icons/doctor-71.png"}, {"place_id": "ChIJBVBeOTJhEjkRirKJj4g_0ao", "formatted_address": "NH 709 Ext, Surya Nagar, Bhiwani, Haryana 127021, India", "rating": 3, "geometry": {"location": {"lat": 28.7862766, "lng": 76.1451238}, "viewport": {"northeast": {"lat": 28.78759518029149, "lng": 76.1465085802915}, "southwest": {"lat": 28.7848972197085, "lng": 76.14381061970849}}}, "reference": "CmRSAAAAIzstT51vx5iAhMHkBZ1d9ndb5XV14emnCuwyrkEzOxRBmzkMseG9mRTgD1E0uMLIWdNH5yBIR0nofJd59a6VdfUy7cMwgt7sh8gASVmNxnqkApHreAqF9et_P__MHatyEhBjhkKI3rfjpKqaVllJxl9sGhRowsSl-LINUpu5r3SBogqfWKH0lA", "types": ["hospital", "point_of_interest", "establishment"], "id": "351326afb235998a21bb56e7bc037d961eaa044d", "name": "Bhiwani Janta Hospital", "icon": "https://maps.gstatic.com/mapfiles/place_api/icons/doctor-71.png"}, {"place_id": "ChIJw93I7vOFEjkRnUkxUnVqqTg", "formatted_address": "MDR 124, Charkhi Dadri, Haryana 127306, India", "photos": [{"photo_reference": "CoQBdwAAAPPq6HLNDIwH8r_2V6F3YtXzq2fvG2m5CLJcTWPnaAILJo6DrXCnPnxv-G-LCg-G-ZhjyWNSe9rUVidHFwXUxT6Lx2c2XwRIPAlIHdj8LNgp1-fcL88IjRNb2wdFC-Q0zyRdOfAQYpd0mBwq1ASs18u9wbos8uOsKUBFL75JVBccEhDZVl9p3iEFGHxlBSY72ce9GhR5F_QFAJ4sumfq_UWvc_QFbbwdkw", "html_attributions": ["<a href=\"https://maps.google.com/maps/contrib/115053739305864659033/photos\">Yadav Hospital</a>"], "height": 1536, "width": 2560}], "rating": 2.8, "geometry": {"location": {"lat": 28.6040292, "lng": 76.2778258}, "viewport": {"northeast": {"lat": 28.6053781802915, "lng": 76.27917478029151}, "southwest": {"lat": 28.6026802197085, "lng": 76.2764768197085}}}, "reference": "CmRRAAAAlLQSCHpEEG7XPiNG_KUHFh3PMeBNYCbSE_OU3OVyNCAjFHA1qYHeM92Os4O9XBSnx60wQ2VQINXDNZd_dwDYHqOgRtGCRddfMdjdvRYwJTNa7o33CD_NSozt3pk6wSKPEhBlVKCqiZHxmuFW6ZHMQUwtGhQYFUG8IbHrLqlYzba3wbHXl4iAxQ", "types": ["hospital", "point_of_interest", "establishment"], "id": "3f5fdd483e9c82eefa939e7f79d4604af275524c", "name": "Yadav Hospital", "icon": "https://maps.gstatic.com/mapfiles/place_api/icons/doctor-71.png"}]}