{"status": "OK", "html_attributions": [], "results": [{"place_id": "ChIJv2MthkgYDTkRcduaDpEVkOM", "formatted_address": "28, Ganapati Enclave, Housing Board Colony, Jharsa Road, Gurugram, Haryana 122001, India", "photos": [{"photo_reference": "CoQBdwAAAIRMOmfDXEwWSo3PpbOXI4sUDuwEu8q9vK7LRfCJLM4jmQBNdhdu8zpWcUo-VhJjxU7rITmmU5ixrcJytrbau9UCctI9596VAEpxewx4VJkqtFTiukG4iVbApF_BGps62sqM7-bj6BnNtDyZTI0tmKaY-6OejIlQxJpwd5ztVnVyEhC_MQUIm-rD7SgoN2ikwMgyGhR5vjj_mp-2orhZgYOP1SShpu6Nqg", "html_attributions": ["<a href=\"https://maps.google.com/maps/contrib/116972168445138625916/photos\">gaurav sharma</a>"], "height": 1305, "width": 1971}], "rating": 4.5, "geometry": {"location": {"lat": 28.4575282, "lng": 77.0364134}, "viewport": {"northeast": {"lat": 28.4589058802915, "lng": 77.03774598029152}, "southwest": {"lat": 28.4562079197085, "lng": 77.0350480197085}}}, "opening_hours": {"weekday_text": [], "open_now": false}, "types": ["hospital", "doctor", "health", "point_of_interest", "establishment"], "id": "e35e633b271637919900dc7477297f8baa3767fd", "name": "Jyoti Hospital And Urology Center", "reference": "CmRSAAAAye41jwW8p8yPDOLZvWCJ-ra0OHu8WhV0agpq5e3h0OpHvNb_C0ZProq8_Hmo-PuO7GQ7fJPyHTxd62CF1RD66fh8mzgoLLAoX6jI3UnIBBC-iTDUWNYpuftyjBiGD8KPEhBCorwrTsJIaQ8GdQK5-BfuGhRFlEOzHKc0tk1q1wpS_yAHRdGurA", "icon": "https://maps.gstatic.com/mapfiles/place_api/icons/doctor-71.png"}, {"place_id": "ChIJ70SSqO8YDTkRQGX_dVJcxZU", "formatted_address": "Tower A, Unitech Business Park, Block - F, South City 1, Sector - 41, Gurugram, Haryana 122001, India", "photos": [{"photo_reference": "CoQBdwAAANesxKSAyxB_knpCo7Q-Px-uxILG7UqYZRYBQKJ5HRHO0K_R5IVJy-2pRbiN7y3HyWUjwjQ3ssKGYI7C5ljrEWyflqvUeR9xKzh37mIeTwOuaGf1FvtDe5qVFebpdEP7XYGk27agIR2Giy7ZCKfsFy6IZhh3YN65kzg5-FkuvevDEhDFxgSu1hq_p814FRhTlEyNGhRTF8QrL2Y_g11yLV2xBgp1mTnJnQ", "html_attributions": ["<a href=\"https://maps.google.com/maps/contrib/113452075430999133911/photos\">Rohit Raisinghani</a>"], "height": 1536, "width": 2048}], "rating": 3.4, "geometry": {"location": {"lat": 28.4579909, "lng": 77.07080739999999}, "viewport": {"northeast": {"lat": 28.45933988029151, "lng": 77.0721563802915}, "southwest": {"lat": 28.4566419197085, "lng": 77.06945841970848}}}, "opening_hours": {"weekday_text": [], "open_now": true}, "types": ["hospital", "point_of_interest", "establishment"], "id": "47297fe7446fbb1a781cb27356dd287a2fa7c3a3", "name": "Fortis Healthcare Ltd.", "reference": "CmRSAAAABsePGtZH1y_wS6H5WXd9V_2Zs2ONgf8NiTH3ozCIXH12kFu8U2UcVqGVV_fkVL9pZu2GBuOzNikClo90SkhTh-Yv0G1SD1LGbLoMbcO6J3peBLOVuW6hNe3ybS7W0X2DEhBnW6a0tllpnB0IrdTUc1EsGhRYNoXREdGGHXx6Xd0dOXUdQ4lM9A", "icon": "https://maps.gstatic.com/mapfiles/place_api/icons/doctor-71.png"}, {"place_id": "ChIJI7c7stAZDTkR5x62ZV4vFOM", "formatted_address": "Railway Road, Sector 5, Gurugram, Haryana 122006, India", "photos": [{"photo_reference": "CoQBdwAAANscCMHXDrlI2f4HkgFQzEr4Vjjho4K-cj3aY8fKH0omnUNf5PDZm8P3znM8Sy67sqNCTAqRA_b5hPm_BRT5V1_b7KUZYEelGtTMRzz3ioeWnteCzeranlpT9tTauxyW10DK-4HJgZXR4AWstuAorNG9ObFpSs4cA-h06KRsuYV0EhDO5FixKhloa_2GMazV2uWXGhQQLwjSAbm3I7CXViEbPRIaW0PIRQ", "html_attributions": ["<a href=\"https://maps.google.com/maps/contrib/101166339435271606278/photos\">Himanshu Khatter</a>"], "height": 3120, "width": 4208}], "rating": 4, "geometry": {"location": {"lat": 28.477247, "lng": 77.0163488}, "viewport": {"northeast": {"lat": 28.4785959802915, "lng": 77.0176977802915}, "southwest": {"lat": 28.4758980197085, "lng": 77.01499981970849}}}, "reference": "CmRSAAAA4WjqDOKzG9M5MVKKtp-uhZCvHQ0RV3wybP10R40veH3yFrItfw9PRd-e6HYEGi0H4wokVkY8Ci9pGpjy1vxe6awYOkZXVyBMoKU3vS2ULIhKLCKljdYfHAkflBQ6GJxCEhA-iaFNcJN4eIoskVF7Egk0GhS32d5a8NkDdT4ochwCkO_bj4hS8w", "types": ["hospital", "point_of_interest", "establishment"], "id": "0b2c4fc417e3a7e819daaca1291f6ef40b9fc8c8", "name": "Sarvodaya Hospital", "icon": "https://maps.gstatic.com/mapfiles/place_api/icons/doctor-71.png"}, {"place_id": "ChIJz_501Mw9DTkRDFAgwKBPH24", "formatted_address": "Plot No. 2, Sector 5, IMT Manesar, Gurugram, Haryana 122001, India", "photos": [{"photo_reference": "CoQBdwAAAMc0tkssB7E_5MNeMwRUYlh5qQ5N1rnzIGm45Np20w94TkCPuNVa2MOSYXms1Wlus9imrbvakR9RcJ1ecErcFTkad6qBdOM-myKW8ZVERnpS33UWw0urMzXNFaHwMxf-CODbf9CBMwExcRbealdxe53yXJ4a0mpf5tCjiMzQOq8hEhCEDgh6PJJ3I8igi8CEX58_GhRdmIn4vfvlM4aJ5IpLgvdSwhiNyA", "html_attributions": ["<a href=\"https://maps.google.com/maps/contrib/111030998933111428642/photos\">VPS Rockland Hospital</a>"], "height": 816, "width": 1232}], "rating": 3.5, "geometry": {"location": {"lat": 28.36675259999999, "lng": 76.9330427}, "viewport": {"northeast": {"lat": 28.3681015802915, "lng": 76.93439168029151}, "southwest": {"lat": 28.36540361970849, "lng": 76.93169371970849}}}, "opening_hours": {"weekday_text": [], "open_now": true}, "types": ["hospital", "point_of_interest", "establishment"], "id": "f37bf293a2307caf141bb2244e4a5debd08e97cf", "name": "VPS Rockland Hospital", "reference": "CmRRAAAAEM5Ti_AYJSFDJ85vERvh7a19gT85d7EoxGD5Ex5f03rsBOy2qO3F6PDb4tHWajztNh_TA0QYNzmgRDQussPiwWym9Vub7PcrOYHXYvwCDHC-FZSi0dtaNICXofMXeHqCEhD83tdGexjGYaW7GRka7bBeGhTYVtDxo9gLyX0GzEGkwER-ikBVxg", "icon": "https://maps.gstatic.com/mapfiles/place_api/icons/doctor-71.png"}, {"place_id": "ChIJAQAAwAMbDTkRCXJKKA0zsT4", "formatted_address": "Plot No. 14, Sector 20, Dwarka, New Delhi, Delhi 110075, India", "photos": [{"photo_reference": "CoQBdwAAAJ8H_Kl4qfEX6gfwuQXXwf2EnPqp-GWqtInSA15suMzCROm_iMHPauh-SbxEAO7Va0-nhC6We9BygVl-gMU1q5sxkqcNGPPbumF_2IPutjXgk2GLOfEim-snUVTVAtOpwegc_VRB0AIJHKE-GAxYcUR3A8mir8uMlzQq8y_2fA90EhC58-9fhsgo_a5iPIK2bqORGhQFtmjdTq8XUuD8ECdOQYX_vmNhFw", "html_attributions": ["<a href=\"https://maps.google.com/maps/contrib/108720671632280552435/photos\">Rahul Vansh</a>"], "height": 3840, "width": 2160}], "rating": 3, "geometry": {"location": {"lat": 28.5698444, "lng": 77.0644081}, "viewport": {"northeast": {"lat": 28.5711933802915, "lng": 77.0657570802915}, "southwest": {"lat": 28.5684954197085, "lng": 77.0630591197085}}}, "opening_hours": {"weekday_text": [], "open_now": true}, "types": ["hospital", "point_of_interest", "establishment"], "id": "b4d86129530252ddbd42222bc9a690580c1814a3", "name": "Artemis Hospital", "reference": "CmRRAAAA1HxrMIAEb9XaNwMEeDZuXo2_RT5G71j8p-xnyJVuaJsrZlgCXlsesbU8m_Swu3Qsfy38EtySduPSEsGgx5KrDy-tamOwnoetqNzHVJAvNWou-GBjv9JTM3i8Blr8mML6EhBL21SsVIhhXX_uFDfUoEb4GhTmxX6xw0Vh8gLo-FN_x0a0K4x5Pg", "icon": "https://maps.gstatic.com/mapfiles/place_api/icons/doctor-71.png"}, {"place_id": "ChIJXYLn9fYZDTkR_aQtMgD3pEg", "formatted_address": "E-3, BAJGHERA CHOWK, Bajghera Rd, Block F, New Palam Vihar Phase 1, Sector 110, Choma, Haryana 122002, India", "photos": [{"photo_reference": "CoQBdwAAALw230R8Kl322Dyu63Fq_3nkglXxqllrELfvL-CFY6jBq6Nv56WlQSRehGFglsFIxnVZwGZWwQR1ohimxlGVnTX_mJ-44uj6DuCLWHxLiPkXG3ZDBwkIQIvlTvL6LgKlFQ-2vPDsxlKD7Dj2fF5srUJe9710UD3Luio-xs8b2ukIEhAYkqEjWzGQ5ylTNRCKFRCQGhTJsuP-Gict1xfJKEm50MCFGDUpZA", "html_attributions": ["<a href=\"https://maps.google.com/maps/contrib/117525948294185054310/photos\">zuzar padghawala</a>"], "height": 2857, "width": 3120}], "rating": 2, "geometry": {"location": {"lat": 28.5103573, "lng": 77.0259109}, "viewport": {"northeast": {"lat": 28.5117192302915, "lng": 77.02732453029151}, "southwest": {"lat": 28.5090212697085, "lng": 77.0246265697085}}}, "opening_hours": {"weekday_text": [], "open_now": true}, "types": ["hospital", "point_of_interest", "establishment"], "id": "dd0e655a1def0cde0034bca3db41f08e6d47e813", "name": "CHIRAG HOSPITAL", "reference": "CmRRAAAA8ZRyZ8wr55PBWvg8Aci7uK-5CDH-P6q5TtZAmIuU_eWNuCqfT1ZrgGnVMM2j7-ZVJHQGaLkSauLBmlyAQlkwyuhlo2oMHOfUq_dAx1PYvJ81fC8N-0ctZsxVrWypm2FiEhC41LGCBRp0vZLw2U5kZ-5rGhTPHJG49nSGlc6-OQkyRX9O-N5J4g", "icon": "https://maps.gstatic.com/mapfiles/place_api/icons/doctor-71.png"}, {"place_id": "ChIJqYwpsa8ZDTkROcokD4fCCx8", "formatted_address": "SCO - 1, 2 & 3, Sector -14, Gurugram, Haryana 122001, India", "photos": [{"photo_reference": "CoQBdwAAACIfxdj8Iiin9eEmCVTcTWB-JS7anhL8WFr0-n6fcqZI8pGi1Ns0f3plmfgqM8TmoXe4DlZjyXeaRJrV50HVLjV5LH4CQTZO69pG8mzUrwrwBlUJokiTZYr4ICJ4C-LCmkI9w8Q2XwDlWCvD62yK-cFki6NraID-lWyaxDWZ-fLGEhDXRNbDbkqP-mGrUgQwerXVGhTQbQD6aa1fFqIo456BHgq0-CEdOA", "html_attributions": ["<a href=\"https://maps.google.com/maps/contrib/116505101326556946039/photos\">V S Shekhawat</a>"], "height": 4096, "width": 3072}], "rating": 3.2, "geometry": {"location": {"lat": 28.4786811, "lng": 77.0471527}, "viewport": {"northeast": {"lat": 28.4800300802915, "lng": 77.04850168029151}, "southwest": {"lat": 28.47733211970849, "lng": 77.04580371970849}}}, "reference": "CmRRAAAAP2mz16PeGvZLU437rcPR9agO936K_57d0nn9sj7Egdp3wsDkHmLrF1ioRfLtdqmd3y6AOOKelvK6ntrRlxpEsL9up5vNEvFsq6a5gTKN4dJJg_8o5PxJHmZezAZXPcFCEhCIFJAlpqKn6uyWBdMVwgI4GhQlk6Mpk6chKC2y8-7HlNTEeQ9Jng", "types": ["hospital", "point_of_interest", "establishment"], "id": "307357e974dffddcade2a8c942c09f7d8a6e103a", "name": "The Cradle", "icon": "https://maps.gstatic.com/mapfiles/place_api/icons/doctor-71.png"}, {"place_id": "ChIJ_fQYC_sYDTkRSi2t2W7mPAA", "formatted_address": "317, SCO Complex, Central Avenue, Sector 29, Gurugram, Haryana 122009, India", "photos": [{"photo_reference": "CoQBdwAAAB12sCcoBhaJo-jMBaO-44N7ZKyz5vCFHLUDSsPb-VWr2Xlblxe9_aScCZa5Qj11uONpUv_jQ2RoZeoATGEkXdJ0wws9jWizvlapuZV3ZIpN9u0zw6KIOFFJDz9jKKmMyXussw0T0sn05aDGFPwyl5WjKElRuB9trHXRL8ffL862EhBlMK2AFU81Au7RQUz-AQwnGhRLESTRyDAmwxYUm029qq3UkQY9Ag", "html_attributions": ["<a href=\"https://maps.google.com/maps/contrib/114210946792778988840/photos\">CFS ANNUROD</a>"], "height": 1138, "width": 1559}], "rating": 4.1, "geometry": {"location": {"lat": 28.463858, "lng": 77.0654182}, "viewport": {"northeast": {"lat": 28.4651940802915, "lng": 77.06670778029151}, "southwest": {"lat": 28.4624961197085, "lng": 77.0640098197085}}}, "opening_hours": {"weekday_text": [], "open_now": false}, "types": ["hospital", "point_of_interest", "establishment"], "id": "b78bedb903f4923a6d222ffc8616fc21eac4f5a8", "name": "Centre for Sight", "reference": "ClRQAAAAl_HM4iNxUilxzdoLfBrs9qTUDboUhciTMTbZcgW4zzhR07JxSj2enckg3NAU9YcKzgJotUcWYitatcIrqynoobcJetEpelwX7sliDF3n624SEO1G7EluxMBZW64CZV3dKZkaFAezUXoKh0n9yXV2FP8b1beZCh-L", "icon": "https://maps.gstatic.com/mapfiles/place_api/icons/doctor-71.png"}, {"place_id": "ChIJPWvRmtIeDTkRxDGF2xMjAY8", "formatted_address": "Plot No. 3204, DLF Phase III, Sector 24, Gurugram, Haryana 122002, India", "photos": [{"photo_reference": "CoQBdwAAAPwLe29qLe-KmaeY_kxjVPtgISwLhk-8rb5PknBT23xJVNtzMVH2hgf7eJAMjW86pHbCwN8qIF_0XAvV2TT-LYT7ox0_f-R3uTWLBPx3ffkjv2_IJgghxkyKuDHuOTuBVUg_OK6amcRUo1iRrlQP7KOL6Q1FhCMwiceafP3sBRM0EhAC_nbmVadDUsas_Cto9jHoGhTcP0PTaBR415gLHpgiU74Errs66w", "html_attributions": ["<a href=\"https://maps.google.com/maps/contrib/103785075934498795175/photos\">Ravindra Kumar</a>"], "height": 1025, "width": 2048}], "rating": 4.3, "geometry": {"location": {"lat": 28.48567479999999, "lng": 77.1047521}, "viewport": {"northeast": {"lat": 28.4870237802915, "lng": 77.10610108029151}, "southwest": {"lat": 28.48432581970849, "lng": 77.10340311970849}}}, "reference": "CmRSAAAAUkYhS9I3wtrFFII-jgeA-3Vb6lG_baCMpLV5W9abtQLVN7XofYZSC0miZWBKFP0FzB5KR86tDxVgnjMhrysfHKql28a4inoGfr5-Zqk2jQWpZz-VSqPXuz6vt8eh-zurEhDr3SUaT7RkOnQPSGB0lREfGhTaIEeCTAsDfHOJw24GUj5w__zVHA", "types": ["hospital", "point_of_interest", "establishment"], "id": "b53a43ea642e11798c69f4d96f283d9d8ee42e91", "name": "St. Stephen\u2019s Hospital", "icon": "https://maps.gstatic.com/mapfiles/place_api/icons/doctor-71.png"}, {"place_id": "ChIJb-IHr0oZDTkRS7bHy-Y4uG4", "formatted_address": "Moulsari Avenue, Plot no 3201, Nathupur, Sector 24, Gurugram, Haryana 122002, India", "rating": 3.7, "geometry": {"location": {"lat": 28.4979294, "lng": 77.101519}, "viewport": {"northeast": {"lat": 28.4992783802915, "lng": 77.1028679802915}, "southwest": {"lat": 28.4965804197085, "lng": 77.1001700197085}}}, "reference": "CmRRAAAALf5znp7VrulLnr6LvvgqFNZC6tEIcNgXWGBFUKajb9B0ruJy9ju4ppH_sluQ7g98w5gi6viOzHUvQoU5L62x6MFJcVy9vHcI9v-pf4qNFF85cX54R16u13DXAvYKYIYgEhARnVrDvdhtkm5QEef-GZ0RGhT06PO-RI1WC-ZhdDGWOIya3EUibg", "types": ["hospital", "point_of_interest", "establishment"], "id": "8610eaa57dfa7768d5a9dd0f6db0016c0ccf6e51", "name": "Panacea NewRise Super Specialty Hospital", "icon": "https://maps.gstatic.com/mapfiles/place_api/icons/doctor-71.png"}, {"place_id": "ChIJGfE7b98DDTkRFhyrqLubv68", "formatted_address": "Extension, Near Madhuban Chowk,, Sector 14, Rohini, Gurgaon, Delhi 110085, India", "rating": 3.6, "geometry": {"location": {"lat": 28.7058117, "lng": 77.12939229999999}, "viewport": {"northeast": {"lat": 28.7071606802915, "lng": 77.1307412802915}, "southwest": {"lat": 28.7044627197085, "lng": 77.12804331970848}}}, "opening_hours": {"weekday_text": [], "open_now": true}, "types": ["hospital", "point_of_interest", "establishment"], "id": "c785baab2c997a2fc5a1f11e826ebe205b9548af", "name": "Bhagwan Mahavir Hospital", "reference": "CmRSAAAAPNM5iCQOZTrz5v7MkuvHH8OJ3K_qkzxwewl9gC4o2eiU-PMVMbka5kgNgnbG6p2yHcvxV96JTLbjb0SJZmP8rbRjf1ltiIt3yJbPalSqIOcmTq4oQ9MSurP5AbVkbTDcEhBo1NCfPrTdfAO7IpR4S3uXGhQLUcEFqrUGr6QOru-wu7SiI4fFbw", "icon": "https://maps.gstatic.com/mapfiles/place_api/icons/doctor-71.png"}, {"place_id": "ChIJi104ZU8YDTkRr-l3XvtGMh0", "formatted_address": "Near Rail Vihar, Part 2, Sector 15, Gurugram, Haryana 122001, India", "photos": [{"photo_reference": "CoQBdwAAAB4oaILpPnWV8ScKtQUvMYKmjpSI0Sxi_FKdQ_gZvU8BiBTms4aHvZd5nIDJoNUmP24mFCGwvA_A_iY_8wyffxuLc0zFNx8v-EKxLfEb7v9RYMgW6IBTtTYmVSg1TKmHrjvyZaM17qe95zuSrSit1yer7lj5u_ZUdZRWUpntIEjZEhDoKKT9zrh0iWs9-7wpu31XGhQey8UtLlW1m7T-eTZKtPeiB5vQBg", "html_attributions": ["<a href=\"https://maps.google.com/maps/contrib/104027236930053013503/photos\">Ahmed Hospital and Ortho Care</a>"], "height": 2048, "width": 1434}], "rating": 3, "geometry": {"location": {"lat": 28.457976, "lng": 77.04142279999999}, "viewport": {"northeast": {"lat": 28.45932498029151, "lng": 77.0427717802915}, "southwest": {"lat": 28.4566270197085, "lng": 77.0400738197085}}}, "reference": "CmRRAAAAWV1k-l2B2o1hu9jr-LD8BNBICaK1HqVhNV0QjONUfbcBrW_GqBcIDIuZtSKf-iO3TWMpootkpnT1gW5vo4e64ay-FpXJkfKytoNdg4LSFW2sbp3FY45dQ4WDm1hYyzC4EhC_E9Gh2pJQ34azkeKvjRzMGhSHHSSJkQzzy5bZzpbzpvqi5aFLFw", "types": ["hospital", "point_of_interest", "establishment"], "id": "477e606b906947ae78e33d9ff9b4cf917859fe17", "name": "Ahmed Hospital and Ortho Care", "icon": "https://maps.gstatic.com/mapfiles/place_api/icons/doctor-71.png"}, {"place_id": "ChIJW5-_HwAdczkRP-ZwIOQcZM0", "formatted_address": "Udyog Vihar Phase V, Phase V, Gurgaon, Haryana, India", "geometry": {"location": {"lat": 27.5658135, "lng": 77.24042}, "viewport": {"northeast": {"lat": 27.5671624802915, "lng": 77.24176898029151}, "southwest": {"lat": 27.56446451970849, "lng": 77.23907101970849}}}, "reference": "CmRSAAAAh_fWzpEff1k8VR0PNnILIaNC-H-xXqkqrx5dJuUxuIritmlWbO0Dio_IG9NWmqcNrLQMiKGSlPgi47Oji7edOHG4p2ECW1yGS8enaiinYhExUlw2Vuev50MnAtjM5N2EEhAHPXNqlIweYSsL_oBM584CGhQixbnz1R-XaFvcaVc8w9Nj9TXdZw", "types": ["hospital", "point_of_interest", "establishment"], "id": "07cda1ce01a75927e31a85c4cae9dba9fb669389", "name": "Cygnus hospitals", "icon": "https://maps.gstatic.com/mapfiles/place_api/icons/doctor-71.png"}, {"place_id": "ChIJ7X1MLEg8DTkRhoSO2pDOZGU", "formatted_address": "National Highway 8, Electricity Board, Dlf City-i, Power Supply Colony, Manesar, Gurugram, Haryana 122050, India", "geometry": {"location": {"lat": 28.35504599999999, "lng": 76.937397}, "viewport": {"northeast": {"lat": 28.3563949802915, "lng": 76.9387459802915}, "southwest": {"lat": 28.35369701970849, "lng": 76.9360480197085}}}, "opening_hours": {"weekday_text": [], "open_now": false}, "types": ["hospital", "point_of_interest", "establishment"], "id": "c211da2824706e023037df1c260fb7d6ddd6e78b", "name": "Janta Hospital", "reference": "CmRRAAAArjfHrYlPAOXai43UNeldLmb0U3ZlsMH4OE4sY7zR-XVXbQ8QWt8MF6TjvNmQW9U86yFCqP7OQApn_4ge5pTSHA2KoTrZBm1DchrJ-H7Xtt0n2PjNNEfWrEMa3c3LaOSGEhDclKNh0Wa95OkY81IfZbrQGhQG4vt3QHwDEPGrqjfJKPyVUwk98A", "icon": "https://maps.gstatic.com/mapfiles/place_api/icons/doctor-71.png"}, {"place_id": "ChIJpwBNSfUXDTkRZPawFxp-aWU", "formatted_address": "Shop No. SCO 101, Khandsa Rd, market of sector 10A, Housing Board Colony, Gurugram, Haryana 122001, India", "rating": 4, "geometry": {"location": {"lat": 28.4423576, "lng": 77.0092404}, "viewport": {"northeast": {"lat": 28.4436570302915, "lng": 77.0106937302915}, "southwest": {"lat": 28.4409590697085, "lng": 77.00799576970849}}}, "opening_hours": {"weekday_text": [], "open_now": true}, "types": ["hospital", "point_of_interest", "establishment"], "id": "910fb5acd9c6d88e3babecc4cb0759d8481e73ec", "name": "Gautam Hospital", "reference": "CmRRAAAA9swJhVHsCl9gV3PtRevROjRNOVgw4x1ar5U1LF4DC8NePdv3wCbZrZ8ox2OhfxC5WMps0KINmO9v4LqalrYUVtKairHpIcOi8FjC7VUtkxQvPZILZDIa45TAFpW3UepXEhCbRecdhsGWez3KVz3cAqphGhTIColYusM8JJghDZIYNBOErsCIkw", "icon": "https://maps.gstatic.com/mapfiles/place_api/icons/doctor-71.png"}, {"place_id": "ChIJSVdbydMeDTkRK3Y1TYpwW9s", "formatted_address": "45, Nathupur Rd, Nathupur, Sector 24, Gurugram, Haryana 122010, India", "rating": 3.7, "geometry": {"location": {"lat": 28.4833526, "lng": 77.1070994}, "viewport": {"northeast": {"lat": 28.48476083029151, "lng": 77.1085691802915}, "southwest": {"lat": 28.4820628697085, "lng": 77.10587121970849}}}, "opening_hours": {"weekday_text": [], "open_now": true}, "types": ["dentist", "hospital", "health", "store", "point_of_interest", "establishment"], "id": "8e2b2c12c0bffeb2196477b7db1058e9f310bde6", "name": "Anahat Multispeciality Clinic", "reference": "CmRSAAAAthedGE0bYsGlnmKFrBRsmoBB11XCU6bE7UMkCTGcnhqJOWuPic5MhtQ7YSMD-UwoeP1Bu4KRMLHNIgzwoJrzlbuIUZeRZmJrgl5ShgXGT8xqmZ-aJezEmnXcigVt8wlLEhDHXTRnENbiRe0cGafBKbxaGhSgxZDTqiMrXPicmPkvVB3km4QAoA", "icon": "https://maps.gstatic.com/mapfiles/place_api/icons/doctor-71.png"}, {"place_id": "ChIJx0aMZyQZDTkRG3BwCKOdkdg", "formatted_address": "No.1, Dakshin Marg, DLF City Phase-II, Gurugram, Haryana 122002, India", "rating": 4.3, "geometry": {"location": {"lat": 28.4814431, "lng": 77.0864021}, "viewport": {"northeast": {"lat": 28.4827920802915, "lng": 77.0877510802915}, "southwest": {"lat": 28.4800941197085, "lng": 77.08505311970849}}}, "reference": "CmRSAAAAK28YU3iaVF1jgVqciz4uO0LBPhRldKTTPU5jDqaLfetYHcE12OLjOUvMTPMpvIQv7-_-rVXBvhvTtSUWOVChCjumHE9Xmr39K_XzX0i_ZtGHsL6rwZU8TW37uNOJxtFsEhCr86ijIucEWIy19P8xEI1lGhS1bgUuYGmJvhSmhdOO4zCe3CTOSQ", "types": ["hospital", "point_of_interest", "establishment"], "id": "0baf58114c5d542dd47c3dbd14f8e5bb36f89440", "name": "Uma Sanjeevani Health Centre", "icon": "https://maps.gstatic.com/mapfiles/place_api/icons/doctor-71.png"}, {"place_id": "ChIJVdkrISwYDTkRMCp6iQOInsU", "formatted_address": "Madanpur Rd, Madanpuri, Sector 7, Gurugram, Haryana 122006, India", "rating": 4.2, "geometry": {"location": {"lat": 28.46102, "lng": 77.017922}, "viewport": {"northeast": {"lat": 28.4623236802915, "lng": 77.01940093029151}, "southwest": {"lat": 28.45962571970849, "lng": 77.01670296970849}}}, "opening_hours": {"weekday_text": [], "open_now": true}, "types": ["hospital", "point_of_interest", "establishment"], "id": "21dc68e8e0d6bdc7f27b0b67cafb694fe7af75b1", "name": "Satyam Hospital", "reference": "CmRSAAAAkkKQBsPaciJeX6ocqdFJfhK2gJAU-ZTmN0YiEoAI_ZMXt-XU6l_UUCAnFRhoI9mPv1Z6sX0Q9p6sqMBnRGFP_aAKeR2O2g7gwSimDYuvuG3VjwadD4cYc7KDu9ay_9_mEhCczrDtWP2ol0K5lqCR4fhzGhQ2j44FoKqq28PluugP1j-ZWO50CQ", "icon": "https://maps.gstatic.com/mapfiles/place_api/icons/doctor-71.png"}, {"place_id": "ChIJTQL73ecYDTkRj5xpQxn8Y4w", "formatted_address": "110, Bestech Chambers, Radisson Suites, 1st Floor, B Block, Sushant Lok Phase I, Near HUDA City Center, Sector 27, Gurugram, Haryana 122009, India", "photos": [{"photo_reference": "CoQBdwAAABSh6kEVImKaDRwuNdUWLknW8J8ychmnxrXwpOgn1A0iGmjAA2UYJtEythDgm1BorkpnNDES8Fo80K6hgqno9oP9W-DHVTfAHae1lrxsVOlSzrZBtTfn0WpcP8OhILopIJYjFIs-ZBaEinPXjThgRZU8fqkGZuP_1_7CyzKS8KAnEhBgzK8echsItsyIsLtXrkVFGhRQU1zRgu_rfWZPS8Ocv8bx5vci-w", "html_attributions": ["<a href=\"https://maps.google.com/maps/contrib/108171478661700124811/photos\">Shroff Eye Centre</a>"], "height": 2736, "width": 3648}], "rating": 2.9, "geometry": {"location": {"lat": 28.461118, "lng": 77.0780319}, "viewport": {"northeast": {"lat": 28.46246698029151, "lng": 77.0793808802915}, "southwest": {"lat": 28.4597690197085, "lng": 77.07668291970849}}}, "reference": "CmRSAAAAgbzjIc8Emb4hnsgu3Ht4ohjReeDrLbIlX8cohnZ1yQAIjaK6Cis7KWwS0CpmmweqJ_WbdgEiNHN9J-H9G1YRQDSj_F1zn38xUbVf3NQpCinUblu_rECH2VYWpDjO6TWXEhDn1MGm7lz5lKfJZBWGQp_0GhQ3bDFZ1QiciU3LZHj_pKqZOERSsw", "types": ["hospital", "point_of_interest", "establishment"], "id": "dfab713ecafd0a33284ca4b2f3e61e87ee893991", "name": "Shroff Eye Centre", "icon": "https://maps.gstatic.com/mapfiles/place_api/icons/doctor-71.png"}, {"place_id": "ChIJAdldF-IZDTkRozDS2ykfK-g", "formatted_address": "3236/31, Vishnu Garden, Sector 105, Gurugram, Haryana 122006, India", "photos": [{"photo_reference": "CoQBdwAAAO5hSut-osamOMksSksxQO-YAhK6itX2mWJWl2wuZgYoRTGUIlm5qUeg7XBwe5cYo3mHO-nmlrGVb2Y9QzkCLrtL9uwRkcCXlxmkfGNAIG-Z-6Qm8Qm7ek04Rbglhl3iIy63EzE8sFf4e4xeUxYgRwHqnbVq5gTTGyNF3InE8HV5EhACwWZO7NMwTlRctGP7UIdKGhTFxkDJTDGbkXGpoksjHY86rUH6Fg", "html_attributions": ["<a href=\"https://maps.google.com/maps/contrib/113851562297956925210/photos\">Chirag Hospital</a>"], "height": 2592, "width": 3872}], "rating": 3.8, "geometry": {"location": {"lat": 28.4954, "lng": 77.011483}, "viewport": {"northeast": {"lat": 28.4967489802915, "lng": 77.01283198029151}, "southwest": {"lat": 28.4940510197085, "lng": 77.0101340197085}}}, "opening_hours": {"weekday_text": [], "open_now": true}, "types": ["hospital", "point_of_interest", "establishment"], "id": "0de295dc422a26c741fa2d159341a5a277064df2", "name": "Chirag Hospital", "reference": "CmRSAAAAD-k1rGHFSvYqsdjrTbbUVDAFHmKqibfBJhEbVTJ3oPck96aezPVD10bdfukiLHQkc1WlrwzR13SnrZW_EUdezPG3cxc6BB3pDn9IvULHqSM1uY_uwS3l5jpLqatNdGlVEhD-rsvGnRbsVrQsRrGD-guXGhS2782zP6TyGTLQiGvzvrr297ocDA", "icon": "https://maps.gstatic.com/mapfiles/place_api/icons/doctor-71.png"}]}