{"status": "OK", "html_attributions": [], "next_page_token": "CoQC_QAAAEooI9XggyT4VLVozalIHfHeuPjEz2WfyEvcxgq2rXf_QERz-uiSbCMZPrZvmz8AP-HviI7l9u_gL8srtQg0QikOgPawMbwhhYhtlQzn_kpX6x26ldY4WzyfXgW-xT67phVUS9HJVCaurZ86Qc0qLBme8jO9XkSvmw6aQYL6wrb9Eh_aVVGPO0rf54XlzErYXd3dW-Sfxf2hUSfFn4jzwzZewndEn4RYNp6pRKCEdgkbKqPyZC7hB6LtAoTs1OopClpbgFKMqD6wl3ZaprSkKMm9SZy38QjR1JD1D4oIbxFZuQ7zw-0eCNEt7chMByW6Bwu0gMXOqn9osHIBEMbnWccSEFhi_uyQyCI6Vkj2gsgfqhcaFLlQZhDqXchZCXcQ0wdyTYC5Q14E", "results": [{"place_id": "ChIJud6fgQPlDDkRZfSvfv1nRyk", "formatted_address": "Block X-1, Vyapar Marg, Sector 12, Gautam Buddh Nagar, Noida, Uttar Pradesh 201301, India", "photos": [{"photo_reference": "CoQBdwAAAFC0ZU2OYARU9K6_y9bNnTQbAOAiesvbWkeppCvkXLoj4pXRPQp0TBJ_1GmKhTYQw1dj_UOtsQPiE1Iboge8wzd4BCa_oFBLLKeQ06ZCnHCHKeaA6e0RFGWoR_Jde9ZRG15pSuiEJTgo_Bvb6zUvqq6lWPeje90gAr55IrkcEyiNEhDhtFKZA56bjzyTlxFAC5aOGhRRHqt0pcv9dx5HH8oDQCf9M5oQCw", "html_attributions": ["<a href=\"https://maps.google.com/maps/contrib/107276929423271589796/photos\">Anant Tripathi</a>"], "height": 4608, "width": 3456}], "rating": 3.4, "geometry": {"location": {"lat": 28.597311, "lng": 77.337677}, "viewport": {"northeast": {"lat": 28.5986599802915, "lng": 77.33902598029151}, "southwest": {"lat": 28.5959620197085, "lng": 77.33632801970849}}}, "opening_hours": {"weekday_text": [], "open_now": true}, "types": ["hospital", "dentist", "doctor", "health", "point_of_interest", "establishment"], "id": "813e8c209a0c97f064ea5169dcd9aeb865b8acaa", "name": "Metro Hospital And Heart Institute | Best Hospital in Delhi | Heart Hospital in Delhi", "reference": "CmRRAAAA-Ge_rnS_ScO-UBHDlXZW43jS6Lv9wfS2Nm3t0557_w78KWTAuzhptjBiFKPWGWy5odlkvaCPc5lrmcwgo0ySH-YuUqfoGJvR6owQFzqj21iFhmypVsHjb83C6xCorOzJEhDbpDrYLSjTo6-iXHo23BoDGhTlQx1tz5aPDcW2Ttg_Wzi5TBkyHA", "icon": "https://maps.gstatic.com/mapfiles/place_api/icons/doctor-71.png"}, {"place_id": "ChIJaWYoJKToDDkR5aCwGrjiZxg", "formatted_address": "Plot No. 1, Sector 110, Gautam Budh Nagar, Noida, Uttar Pradesh 201304, India", "photos": [{"photo_reference": "CoQBdwAAAFspOGQibynWETemQv8Sx0tvbiH3Ys4f6M0Y8HV8SXdVWocEkdOKzgyRf4CJsjPqt4oz-GnJxc7l7pBJ6O84FBat6eNQ8ej3fsOshU9h2o5IWZKSlW_g55sZ2LjrVHeTy3oiNolMiKLKkhBpdJN3C7zOnbM0SXyhGv8_1-c6QfQCEhDi1SLGmKO3q77iLmj6FItqGhRIj26wlNnbMbVmeYckV5GmrAMSJQ", "html_attributions": ["<a href=\"https://maps.google.com/maps/contrib/107007014509241873129/photos\">Yatharth Wellness Hospital</a>"], "height": 1808, "width": 1791}], "rating": 2.6, "geometry": {"location": {"lat": 28.5320643, "lng": 77.38456819999999}, "viewport": {"northeast": {"lat": 28.5334132802915, "lng": 77.3859171802915}, "southwest": {"lat": 28.5307153197085, "lng": 77.38321921970848}}}, "opening_hours": {"weekday_text": [], "open_now": true}, "types": ["hospital", "dentist", "doctor", "health", "point_of_interest", "establishment"], "id": "8a230080e883773f7f87bce11d3f37003094fea3", "name": "Yatharth Wellness Hospital", "reference": "CmRRAAAA4-PeKks5PJ_h2sE8xDJsjPa7CMMsmtvjC9Qw3da7VsKv1WrA_sgQ7-kL_4OUs32mfyz_c1M8J24EGdGDtou-edJAjYuzbru663lqzBescLSoTrY7cEkQ5jNYYAHyaCWfEhCdFpV_HDrVMndfm0Of7YdlGhTnQk_Q4oyitakZ9Bi7qh8bDo1-rQ", "icon": "https://maps.gstatic.com/mapfiles/place_api/icons/doctor-71.png"}, {"place_id": "ChIJm2VorpzqDDkRbjEmz9c7W8k", "formatted_address": "PLOT # 32-34, Knowledge Park-III, Gautam Budh Nagar, Greater Noida, Uttar Pradesh 201306, India", "photos": [{"photo_reference": "CoQBdwAAAEUF4bU2JZkFL7z0iux265xl76jKPxrByTJHl8vpfl22qcrbkbXpXB7ZoZjbw-B0_tlLY4eIB1zCCcvTqKOoiv8EQApr70HmAOQiRZC62TpB7sS3sprbqdP2NGjyonFlBGoTpfZx4oNMobOXSQb23WqGcse1ebAJ3veoGDGLLR9ZEhDIbdsN_wo5LwH76g9ltRnoGhRCunm3r7WgBS4dgBou2-cyH2q6cw", "html_attributions": ["<a href=\"https://maps.google.com/maps/contrib/102297446401467389089/photos\">Sarthak Bhadouria</a>"], "height": 533, "width": 801}], "rating": 3.7, "geometry": {"location": {"lat": 28.4744444, "lng": 77.4826992}, "viewport": {"northeast": {"lat": 28.4757933802915, "lng": 77.4840481802915}, "southwest": {"lat": 28.4730954197085, "lng": 77.48135021970849}}}, "opening_hours": {"weekday_text": [], "open_now": true}, "types": ["hospital", "point_of_interest", "establishment"], "id": "6c95f45ddd9189e5a884670e0bbf0719edf99c24", "name": "Sharda Hospital", "reference": "CmRSAAAAypuOyP8Gq77KeBHS2HgVFNc2hFwN9byOzSztI9wK86ujm6m6cdA3UaiX9UMlYg7pWi8HNGjSI1ndv4KOU1UDQWgdqxLkbP4qBHsPTttHk4H9I-N7Fe4tqRuOSkU-WqOZEhCKWQrmORm6OO467WVlBLGgGhTwrsjNdDBJaRxenxopL0OpueBiAw", "icon": "https://maps.gstatic.com/mapfiles/place_api/icons/doctor-71.png"}, {"place_id": "ChIJlXdvtqblDDkR6IcHOxqe1Rk", "formatted_address": "D - 12A, 12B, Sector-33, G. B. Nagar, Noida, Uttar Pradesh 201301, India", "photos": [{"photo_reference": "CoQBdwAAAHnHxFsln3uLw0Oa0Wjomda5Q3tynRKcm75NO4k_Yz3-ut2hoUvLMHKch05o4128Yb4SOGhpUl_-cXBfICHXKiuLQqCtq2UsFBuQKNEteVTpo98Wt8PNNPDe57f-ro_NHyL87gNxD66J7hjg-AqPUpVaL2o1Vo6MuCrQDuHrHUVyEhAdB2lciKWerIFojfKckWPNGhSVq0k4oSPkm_5-A1GNUWBSEeVAoA", "html_attributions": ["<a href=\"https://maps.google.com/maps/contrib/110334858065711150787/photos\">ritesh negi</a>"], "height": 480, "width": 640}], "rating": 3.2, "geometry": {"location": {"lat": 28.5855665, "lng": 77.3494465}, "viewport": {"northeast": {"lat": 28.5868419302915, "lng": 77.3507215802915}, "southwest": {"lat": 28.5841439697085, "lng": 77.34802361970848}}}, "opening_hours": {"weekday_text": [], "open_now": true}, "types": ["hospital", "point_of_interest", "establishment"], "id": "a679dedc4483395d855269f398d864e72f7ed225", "name": "Prakash Hospital Private Limited", "reference": "CmRRAAAAzPawTl5CHfYL9lpW5CZ0us_KXPJkx7DG2lZynWtz1byQS45RmIPTqC3Z8RsL_ZgGsOKYCyALlHFnBVWzWmev_n9Uk4ppepmwDFpEIiasfrZKuQ75r9di1VjWTzKny7jaEhBLC05CrgU5Y87cipcOwQKtGhSQiO7ILZWnKrc6iz7yvw3Xo8hFlw", "icon": "https://maps.gstatic.com/mapfiles/place_api/icons/doctor-71.png"}, {"place_id": "ChIJVx9i4UPrDDkRavgBs2jlhjM", "formatted_address": "Shop No. 84, Railway Rd, G. B. Nagar, Ram Vatika Colony, Dadri, Uttar Pradesh 203207, India", "rating": 5, "geometry": {"location": {"lat": 28.545273, "lng": 77.54366499999999}, "viewport": {"northeast": {"lat": 28.5467201802915, "lng": 77.5449349802915}, "southwest": {"lat": 28.54402221970849, "lng": 77.54223701970848}}}, "opening_hours": {"weekday_text": [], "open_now": false}, "types": ["hospital", "point_of_interest", "establishment"], "id": "ca91561215026d405a937be700edd5500ff0ed2c", "name": "Durga Hospital", "reference": "CmRRAAAA_lTSf4tqVO4RGy0kWVFsVxxo0sOeA1Ow3cuDa7aS2y806_5PUyFB2RzzdFWCXVfd-AO04_BfGpTmsfCL5Pax7P377UB7_IJpvJ0HIvLm8MbjeAI6IVHpPAXOUS8UlaaREhDmRT-Js4XZFLnFuBDSOoZqGhQhZ0sBauw9BzbwUNQ48Oq7rm4bpw", "icon": "https://maps.gstatic.com/mapfiles/place_api/icons/doctor-71.png"}, {"place_id": "ChIJp1moEBTlDDkRuWbCU19Dyo8", "formatted_address": "Sector \u2013 24, Gautam Budh Nagar, Noida, Uttar Pradesh 201301, India", "rating": 3, "geometry": {"location": {"lat": 28.608345, "lng": 77.3503989}, "viewport": {"northeast": {"lat": 28.6096939802915, "lng": 77.35174788029151}, "southwest": {"lat": 28.6069960197085, "lng": 77.34904991970849}}}, "reference": "CmRSAAAAcE4H7adwPpVBVy6OY8QSwFjTI75M_q_3G112HxMERWDlTHxxWFWGzxJWM1RMMQIa_q1V3ge-qaOJyUACYLP0kotOs_2MgF6wT3hiRdQqqsiSR4K435N66FIKy3mq07GXEhCo5CGmqiZR7cFJDuW9iUzeGhRPMeoDu_vPwnmag_PTB448JNH1YA", "types": ["hospital", "point_of_interest", "establishment"], "id": "d5db444ffdde8ec387a298aa652eed1cca25d0d4", "name": "ESIC Hospital", "icon": "https://maps.gstatic.com/mapfiles/place_api/icons/doctor-71.png"}, {"place_id": "ChIJhalalLroDDkRuD-DAzbeYRg", "formatted_address": "Plot No. 734, Main Dadri road, Haldoni More, G.B. Nagar, Greater Noida, Uttar Pradesh 201306, India", "photos": [{"photo_reference": "CoQBdwAAAF74h3DOnF7l59N_byq_ZziyX_Xzpqp73IQfqCZUGJUYS8a0jFx_6n4MU4xFYv3b0tnEmWtWaaeRoqZXuYe0qsYnwchnxPJsUDRuSOpCZHYwwt84SIhPSIKecYiK4zoo1ph6dgWPAw7hqEvd4CRxt6cA0A-_OozLNDQ07mH0WCLBEhCkjKREO9svWGssX5DeheStGhTNxf6tM88EsMsjqKlYaV66nXfGkA", "html_attributions": ["<a href=\"https://maps.google.com/maps/contrib/112554829123607255117/photos\">Rohit Dubey</a>"], "height": 638, "width": 638}], "rating": 3.7, "geometry": {"location": {"lat": 28.53271669999999, "lng": 77.44396230000001}, "viewport": {"northeast": {"lat": 28.5340656802915, "lng": 77.4453112802915}, "southwest": {"lat": 28.53136771970849, "lng": 77.4426133197085}}}, "opening_hours": {"weekday_text": [], "open_now": false}, "types": ["hospital", "point_of_interest", "establishment"], "id": "805b8b52d1e982c752b2291085cb88727ef8d4ef", "name": "New Balaji Hospital", "reference": "CmRRAAAAxSwSpZqXSJG5QyyV8cVuC4HpNeLgSfS46fcuImK2toTkNLo421x1zXRRuYYLTnTzJF8ahXWIpXoo3k4J2K1vHcKoDlmrmwyEfAwxh_7Ie7tTjrSsRZO7xVM9oAVepT95EhAnFfMhCcB9VjluWYMD0C3OGhTR08X7azaWjYfg1Ikl_YX62iv-YA", "icon": "https://maps.gstatic.com/mapfiles/place_api/icons/doctor-71.png"}, {"place_id": "ChIJq6rqfFD7DDkRq5E40IMYbeo", "formatted_address": "21, Community Centre, Preet Vihar, Delhi, 110092, India", "photos": [{"photo_reference": "CoQBdwAAAGDah16Xhi9DUqRYwG_uzlGWv463xjjewt0yBfZVvoZWjD0SR7ZcXyX4rqUSoXRFzktrMdQKbytAo8SzgbYc3DUc0IBX3wHkyY09_GnXO8eGJ1bRdYe8X43ICwRTC1TOuxIaEl78HC4eOEBDnLx3qQqL8Z-w620i9KNKM0-bNEEjEhDFI_swZH2S4ff0-6wYeUz5GhRjvrRGa5Tz45pydUoKxSQOxHSxow", "html_attributions": ["<a href=\"https://maps.google.com/maps/contrib/108971381338076622239/photos\">Metro Hospital and Cancer Institute | Best cancer Hospital in Delhi | oncology hospital in delhi</a>"], "height": 516, "width": 1280}], "rating": 2.8, "geometry": {"location": {"lat": 28.6384762, "lng": 77.29485880000001}, "viewport": {"northeast": {"lat": 28.6398251802915, "lng": 77.29620778029151}, "southwest": {"lat": 28.6371272197085, "lng": 77.2935098197085}}}, "opening_hours": {"weekday_text": [], "open_now": true}, "types": ["hospital", "dentist", "doctor", "health", "point_of_interest", "establishment"], "id": "479e37c0acfc1580dd5f314343a08d4f92855805", "name": "Metro Hospital and Cancer Institute | Best cancer Hospital in Delhi | oncology hospital in delhi", "reference": "CmRSAAAAqU6ziQZEcrkU_aoPPt0PWflssFM-2dT5n2_qfizgKSEQ2kEWvKHWjm4Uz-InKn5sQqqXzVSef1KQb1axvA52RGvzRoMB3Ru7dlX38yy_99j7Orxd_Sts6RaT8orIQwDLEhDp3uxDyO2YfPJCZ0ScQCfxGhT5U5kBj_d29KcO_hRPaMKmNAqLAA", "icon": "https://maps.gstatic.com/mapfiles/place_api/icons/doctor-71.png"}, {"place_id": "ChIJ_____-7kDDkRTdT05Tsw03U", "formatted_address": "Vasundhara Enclave, Near New Ashok Nagar Metro Station, New Delhi, Delhi 110096, India", "photos": [{"photo_reference": "CoQBdwAAAAn4HNYtwKuuTV8yHSv4MNSNRX90VuoxpDKZiovztM8jAWS9Sies0IniE6aYKAE6e49WH16D-9IG_rXm27X1LjG40ukbtnFn3xKvwhfZxra0Uy7BP5hKNYanVVvi9Zd8bI-sha_0uPDOwqSdwLC4AYUh9i0In6PrTX03DEv0F5z_EhBGzKCgeT69KL3qTZ7bGHnIGhSjaWPZnIzpbEMeQwHrByjbWPIJ0g", "html_attributions": ["<a href=\"https://maps.google.com/maps/contrib/100679696609543308404/photos\">Arti Singh</a>"], "height": 5376, "width": 3024}], "rating": 3.5, "geometry": {"location": {"lat": 28.6025189, "lng": 77.3141035}, "viewport": {"northeast": {"lat": 28.6038678802915, "lng": 77.31545248029151}, "southwest": {"lat": 28.6011699197085, "lng": 77.3127545197085}}}, "reference": "CmRRAAAAkb6rTCAdNF_Uf2pO9NLI0PiJL0uxIlAqx86_Y75dpN3aBLSDozBPWEvk23UALuL5EfO06Xo4bv0qHWjbojU_V9B_PtyNE5o9MfLh6agbkfPwGegrRORfgRZ251tsofWsEhDNmXHKI0HfM6TPj_91rglbGhQhZVnGnwsqUw3tNZ_11tmSDC7bPQ", "types": ["hospital", "health", "point_of_interest", "establishment"], "id": "0c15707ba3f8660f210d4741d6868ac2d41a9455", "name": "Dharamshila Hospital And Research Centre", "icon": "https://maps.gstatic.com/mapfiles/place_api/icons/doctor-71.png"}, {"place_id": "ChIJtbSdVVblDDkRzGAml9mnXTQ", "formatted_address": "H-1A/1, Plot No. 1, Zygon Square, 1st Floor, Sector 63, Noida, Uttar Pradesh 201301, India", "rating": 3.4, "geometry": {"location": {"lat": 28.629949, "lng": 77.375569}, "viewport": {"northeast": {"lat": 28.6312979802915, "lng": 77.3769179802915}, "southwest": {"lat": 28.6286000197085, "lng": 77.37422001970849}}}, "opening_hours": {"weekday_text": [], "open_now": false}, "types": ["hospital", "health", "point_of_interest", "establishment"], "id": "c3c7506c98e6b351c8181f59544d587480f3efd9", "name": "ICARE Eye Hospital", "reference": "CmRRAAAAdJgwvnvEJUIC-hU5BIQwldIEBV9LBfttHN13S_81LePFcqOM2kIwVo2xkPCH2isf7GNHg61oPUvbAhgJOhppxkzxYs7ibSyEqGankLb80EQ3eGbUoiHLsV_f1EIlaafSEhD5E5HkgIeU_eSTUZ6JTAgiGhT6ejEES7ZaDgPbFQLJ4BWygd5vtA", "icon": "https://maps.gstatic.com/mapfiles/place_api/icons/doctor-71.png"}, {"place_id": "ChIJ55au0AvlDDkRMrtxmSRlFb4", "formatted_address": "Panchdeep Bhawan C.I.G. Marg, Delhi, 110002, India", "rating": 5, "geometry": {"location": {"lat": 28.5936188, "lng": 77.3500557}, "viewport": {"northeast": {"lat": 28.5949677802915, "lng": 77.35140468029151}, "southwest": {"lat": 28.59226981970849, "lng": 77.34870671970849}}}, "reference": "CmRSAAAArJmmOwWi6m-0VqloPyvVXNhMx4MknPMle5bndwHZpDF2_zl2YaPfwYSHObY5_99n6rDwYSOHoLrf77h2XZn09c3dIk1SHy9NxUPh17W9JLlUq6Ats2u37D0c-ufAcuI6EhAkUXNSvtnyGCKCy3fbX7RlGhRL2cbvOhlRx50w1gzRvA0bAkdLKA", "types": ["hospital", "point_of_interest", "establishment"], "id": "bacdedecf6540936216b1bc10fc3a2ad0d68b154", "name": "ESIC Hospitals & Dispensaries", "icon": "https://maps.gstatic.com/mapfiles/place_api/icons/doctor-71.png"}, {"place_id": "ChIJEVh8FJflDDkR8b87TYEKD-8", "formatted_address": "Sector - 35, Morna Village, Noida, Uttar Pradesh 201301, India", "photos": [{"photo_reference": "CoQBdwAAAH73v5532Ah_AGnDms24pMvuoEUtIsEz_BVLRNttaOYiOKndS1J6JC2GALWEtqBNITMB7EMPs4ddc2lr7EjF1xF6i8-sRYktvkOm9vb_GtdGoFRLr8EZySuZ2ndZZ1oTj-wGQlrFWMBUJInN35xYAxUfqAGrS2UqtO1xOEeobYjrEhCUrvQSBfUDQ-5iIfmKYZxoGhQmPyVU32KSFMi6dGLey-tRhNySIw", "html_attributions": ["<a href=\"https://maps.google.com/maps/contrib/114754091124761744850/photos\">Rippy Bedi</a>"], "height": 843, "width": 1902}], "rating": 2.9, "geometry": {"location": {"lat": 28.577838, "lng": 77.359394}, "viewport": {"northeast": {"lat": 28.5791869802915, "lng": 77.3607429802915}, "southwest": {"lat": 28.5764890197085, "lng": 77.35804501970848}}}, "opening_hours": {"weekday_text": [], "open_now": true}, "types": ["hospital", "dentist", "doctor", "health", "point_of_interest", "establishment"], "id": "351ad37441ca945c462ed98e6c7826f2e96e3f20", "name": "MITR Hospitals", "reference": "CmRSAAAAe6oMLmE0WCMi1UuN78TbZVlowYmtjSejXf5a8qBPvm2gSxK01z7F6Hz1d0DMARNk4BAkr5fhy8zSw18-uB8J1EQdSWlB6iITP_6_maRguwPgYSmoL0vE6eKnHmQYKT0zEhDl2tvunW0RFotyqjEMjatKGhSYqs4v5dsNstWdqYuHyuDiqHLT9Q", "icon": "https://maps.gstatic.com/mapfiles/place_api/icons/doctor-71.png"}, {"place_id": "ChIJ5y_Bl6HsDDkREpRsOBEcMmU", "formatted_address": "NH-91, GT Road, Near Ambuja Cement, Dadri, Uttar Pradesh 203207, India", "photos": [{"photo_reference": "CoQBdwAAAD8Pif8cVnvl4gP5rlBR8sk_5PFvLpEXO_6UCugnvnZe5Bsk8JKihl1LrX1Jut0mMnxjKhzB9X2Ap_vGzy3UGp8LjRgC276e_Qsx975yl4Xmusme0efVLurrdaiygbGs58Z87FfP-mJJclCS1goCPiWxQErQZWgaD6fbykNd0rBKEhAUs_9u8pnrPGNxL8MEHpfyGhS9_QdnLALir1wzAW8AhuoyjvALaQ", "html_attributions": ["<a href=\"https://maps.google.com/maps/contrib/102250490802313496456/photos\">Mohan Swarup Hospital</a>"], "height": 1536, "width": 2048}], "rating": 4.1, "geometry": {"location": {"lat": 28.5669924, "lng": 77.5412733}, "viewport": {"northeast": {"lat": 28.5683413802915, "lng": 77.54262228029151}, "southwest": {"lat": 28.5656434197085, "lng": 77.53992431970849}}}, "reference": "CmRRAAAAHXI7sabWdRzRCdYkDLfbLc6QMhHO-OGNQnH6NRVKgqPZ7LqE7_oISZ0-lY52ycoByMmwpTN0nAdLXKDlCFzoUTy1KJhjDEP5J5cEFl2QYlEFrheA37LI2Dizwoo78nc8EhBUlJ1skHlgCnzEO5uCjWykGhTIX5mzxlVVdMo2MSnNGFAX0D4ebA", "types": ["hospital", "point_of_interest", "establishment"], "id": "5ff5ce4773be76694f293b91b11b4788d70a33cd", "name": "Mohan Swarup Hospital", "icon": "https://maps.gstatic.com/mapfiles/place_api/icons/doctor-71.png"}, {"place_id": "ChIJVVVVVWrmDDkRRMvnsvw60ew", "formatted_address": "Noida-Greater Noida Expressway, Sector 128, Noida, Uttar Pradesh 201304, India", "photos": [{"photo_reference": "CoQBdwAAAA15BeaQFzL5Ab2xy2l4sYZquh8wW45JKNIQEQeeV3labMq_54fMFzew2JWF-74mbTPIOc-Xjizs-Rm4Uhj8IS9xmAhhRrA09z0MoQQhFtaeOYFKPOZeio453QLMFR-Qj3Dzw4Uq7L9Z4L02DDu6eGVYqG426M9ic8Mt-zo_xAQREhB7Ccg2n39UsRLV_tPmdEEkGhS0IISJIXS7Ggoh3Dt0XgYG7-9SBw", "html_attributions": ["<a href=\"https://maps.google.com/maps/contrib/114624730514523896757/photos\">Jaypee Healthcare</a>"], "height": 2340, "width": 4962}], "rating": 3.4, "geometry": {"location": {"lat": 28.5154684, "lng": 77.3715105}, "viewport": {"northeast": {"lat": 28.5168173802915, "lng": 77.37285948029151}, "southwest": {"lat": 28.5141194197085, "lng": 77.3701615197085}}}, "opening_hours": {"weekday_text": [], "open_now": true}, "types": ["hospital", "point_of_interest", "establishment"], "id": "65ca69ffa15f58cac3e488782cd95364b83e09b4", "name": "Jaypee Hospital", "reference": "CmRSAAAAY7VaNrMuSCuAzL0OtjN3FEw3J2zPx7LkDq9Vju_fkJf0F2j6J7Ne-17DpmL3tKNhFnI0njF9DjF75ifpC__F9Z6DljmyhFQ6HsmWzsdyCKbEsHlb7iqtiET8b02NrFVLEhAfpZtvGmXU929Vq1JSCDgQGhT36e7v8K3ILOclJg7hX9EqMz8s-g", "icon": "https://maps.gstatic.com/mapfiles/place_api/icons/doctor-71.png"}, {"place_id": "ChIJwUaS07fxDDkRnzwj-fXbVns", "formatted_address": "Nehru Nagar III, Near Nehru Stadium Jogging Track, Ghaziabad, Uttar Pradesh 201001, India", "photos": [{"photo_reference": "CoQBdwAAAJM0m_9ss9tBM7B-42D36qdmCaGeAgF37_kBqe9O2P3NNrBiiHgf59Un5wgWCvRFC-CEyeasc3eR_f7eEiYL9pT4QOGQ5CjgjGauqOjfUyfffKTyxsLpqN0wvnGSMLJc7Z6yooOtIxTtTvY1811iKNSqbKvZZtdhRxjwSc4VjUizEhAHj-nltf76qGigGMH5VyDAGhSnJuLBWwQtUoU3R7PU1_tZ2GYCVQ", "html_attributions": ["<a href=\"https://maps.google.com/maps/contrib/110789818667977786664/photos\">Pankaj Jain</a>"], "height": 1722, "width": 2103}], "rating": 3.8, "geometry": {"location": {"lat": 28.659996, "lng": 77.4384019}, "viewport": {"northeast": {"lat": 28.6613449802915, "lng": 77.4397508802915}, "southwest": {"lat": 28.6586470197085, "lng": 77.43705291970849}}}, "reference": "CmRRAAAASLdeazim7D3T0FAq7Oe4X5xkxw6lDqWyduQuz11sYZu5XPjkrjck7tF6pwsVs6kA2enPEUzkzaMRb1P-yfYqt0-IaXAslVgEBqMfeUARn9-AXONE_cPey5Efm8YoCd6LEhDuhsyQDPG5tb4x7ZiPKYWZGhRxfMX3b1LWAwKHoHl4WL_8_Vmrbw", "types": ["hospital", "point_of_interest", "establishment"], "id": "848311db9827893bb5b35ea5e9ecedf25885f385", "name": "Yashoda Superspeciality Hospitals", "icon": "https://maps.gstatic.com/mapfiles/place_api/icons/doctor-71.png"}, {"place_id": "ChIJibLCrevqDDkRrhEtNSeroBw", "formatted_address": "Plot No 41, Pari Chowk, Knowledge Park 1, Greater Noida, Uttar Pradesh 201310, India", "photos": [{"photo_reference": "CoQBdwAAAFuyPnIhyqB-F6yYeBXzh6MnumJNDb5K_vymNtaL1pgVOnyGK9QNzZL-XjH1e6zdxjBVRiZ1CYU-4MpfMusu8v1FAnJ79UFbF2pxu_Rfh4nK1lxjD_1ASx9ihqGl5S8uisGq0If_xfU9oFvLxSa6f8MPfwdcYOFamuXbyAhPeHPUEhDC6i9urlLgm5MV8HuSXmtUGhQrQ-b4ubxCBC3ONCw7iO9pgiMt0Q", "html_attributions": ["<a href=\"https://maps.google.com/maps/contrib/104548484186240308016/photos\">NIMT Hospital</a>"], "height": 1470, "width": 2048}], "rating": 1.9, "geometry": {"location": {"lat": 28.46665359999999, "lng": 77.5092543}, "viewport": {"northeast": {"lat": 28.4680025802915, "lng": 77.5106032802915}, "southwest": {"lat": 28.46530461970849, "lng": 77.50790531970848}}}, "opening_hours": {"weekday_text": [], "open_now": true}, "types": ["hospital", "point_of_interest", "establishment"], "id": "2cfd960ffe39b214ec46289f8141ac867b938b2c", "name": "NIMT Hospital", "reference": "CmRRAAAAVxoCSJu1FmA1ColLv_U_-2KxCY0wRLuBqkXQU5p4RpnBXOwIX0Y6L4b1g4meOWYrSDtGx_J6YH8i-G0R9MSn5A6eQEWtVpol_b54kV6lxsW6ifwNdo8s0dTS1585GkN0EhBi_6l2O5h78JB-hRPfXpinGhS_wVg5bHeUuTUUwFt-_Tuk-EZc0g", "icon": "https://maps.gstatic.com/mapfiles/place_api/icons/doctor-71.png"}, {"place_id": "ChIJ7_IKZkXrDDkR9oEfh2sdmOs", "formatted_address": "Railway Rd, Dadri, Uttar Pradesh 203207, India", "rating": 3.5, "geometry": {"location": {"lat": 28.549554, "lng": 77.549842}, "viewport": {"northeast": {"lat": 28.55087393029151, "lng": 77.5512141302915}, "southwest": {"lat": 28.5481759697085, "lng": 77.54851616970849}}}, "opening_hours": {"weekday_text": [], "open_now": false}, "types": ["hospital", "point_of_interest", "establishment"], "id": "42a533680773479526c356e4fc07697258eb876a", "name": "Navin Hospital", "reference": "CmRSAAAAs_v5WyhYMCJ3Gx4fzWWj8UgY02wU0X6P6e-kNQYXxrw6J0igulDfFInS8jACGrMnuGlkVGk5zEPEsL_UIFOPjga4yYSduKkhzGW_9X9ZSHa4MKSWE-7kd3h8KjwyD9f9EhAFhhNiOqeHPGlz1DQSSxY2GhTepETWr1UGNoSvcyJ2l7FzvHH4XA", "icon": "https://maps.gstatic.com/mapfiles/place_api/icons/doctor-71.png"}, {"place_id": "ChIJxwvZQ1LkDDkRWoR2e_MvyjY", "formatted_address": "C-53c, Sector - 33, Near Sector 33 Park,, Noida, Uttar Pradesh 201301, India", "photos": [{"photo_reference": "CoQBdwAAANpYwYQwddKyFA06og012H5rb0YuEFqDQxg5fuhG8eCv_y2QxjXeT9CSDLHRMXGwlS8OkaVJyM7l5pV7QSeSlS-XYXy539aKTc4-Riyc99IC-Bz6P1Up9ksGyD5KDib-h-qytlurafIf7xOr3e9ZqXgrZMwcPyZT9ciF9yFlEq94EhDr6K2EJUQIlNwhIucSDJmmGhRTeJljAnOSwukO8fgdOt0X_6gBAA", "html_attributions": ["<a href=\"https://maps.google.com/maps/contrib/116686091754838796953/photos\">Tirupati Eye Centre</a>"], "height": 723, "width": 720}], "rating": 4.2, "geometry": {"location": {"lat": 28.587317, "lng": 77.357044}, "viewport": {"northeast": {"lat": 28.5886659802915, "lng": 77.35839298029151}, "southwest": {"lat": 28.5859680197085, "lng": 77.35569501970849}}}, "opening_hours": {"weekday_text": [], "open_now": false}, "types": ["hospital", "point_of_interest", "establishment"], "id": "911b31d0f793fc35b0cbadc48002bb61b5d897fd", "name": "Tirupati Eye Centre", "reference": "CmRRAAAA00Tv9P2xD9IMOuKPr2PodYcJsAQ6NxPXQwbGkf-DXZIBRid3iPPpcKTKhv4jM2ksBXfJQwA0iuQz77yI5Q4Q5__gI2mj9s4ZapxwG8qMonj1_Y2XRoiKt1laHapKrRDZEhA8pSeNac1CQdxUFKHeBHDKGhTe_rolMUTQQJRyfp8jdLnBJUTluQ", "icon": "https://maps.gstatic.com/mapfiles/place_api/icons/doctor-71.png"}, {"place_id": "ChIJE9kAHJzlDDkRwPIXDxRSIM4", "formatted_address": "Block A 93, Sector 34, Noida, Uttar Pradesh 201307, India", "photos": [{"photo_reference": "CoQBdwAAAFg9_dXSojubBn1QEsYcZAt0FcM_0HjXhJ7lnCBUJUDZHzZhqEAY1nI80PINbPQLCNI-OJ2OASUqocFAR2_5q6MI5Xofp5tg4Tewd7D_qYYuD9zqcUo1jTaaSEUkCerx0Pz3zJt8xBatzruTYj8KKwMmkktCuBZmkyBSWbayedf-EhAoI6rJw5mcElRrmkbVY8DYGhRAezHrPK99x0NUN-Qy6mBbL40MSA", "html_attributions": ["<a href=\"https://maps.google.com/maps/contrib/108053627617973589915/photos\">Manas Hospital</a>"], "height": 1530, "width": 2048}], "rating": 4.4, "geometry": {"location": {"lat": 28.586476, "lng": 77.361639}, "viewport": {"northeast": {"lat": 28.5878249802915, "lng": 77.3629879802915}, "southwest": {"lat": 28.5851270197085, "lng": 77.3602900197085}}}, "opening_hours": {"weekday_text": [], "open_now": true}, "types": ["hospital", "dentist", "doctor", "health", "store", "point_of_interest", "establishment"], "id": "194a65ebb6c694a40eb313ff4297f713237dd94a", "name": "Manas Hospital", "reference": "CmRSAAAALVcfiycoX9cR1p4LVyiPqL9gFZaXpOBzrv75bG40TuXYBjvjUZolMxoQRkJtPyQffeLJWHDjted9uOoe5lYWbbpSYhFZs_oB8TxX47FEZQ6rJBzg5JjLMNj2qkG7pU0ZEhC_c8XJ-Jqy5eI8QUqfS8urGhRwZnz5Vo2NXskBVieaBjhdtCdJig", "icon": "https://maps.gstatic.com/mapfiles/place_api/icons/doctor-71.png"}, {"place_id": "ChIJldXL2nnqDDkRIEJGmHnrb4E", "formatted_address": "Plot No 23, Knowledge Park 1, Near Pari Chowk, Greater Noida, Uttar Pradesh 201310, India", "photos": [{"photo_reference": "CoQBdwAAAJBb6GQsekVhISis2JJvt2dfVMzw43bPIf7QLxYI1sivJ89IyCrJDJILDY3mjQvWyTyfFKC2nqEardz8zosPXjz8na9G9ERpS8Bf3xHaqMpIGxWA0JgPlhlf5CoigKI77bCXT5Q3jUgI27Gb2tejO_UxqvOqXmFUdy0ZliaiPpEdEhA-SoBoybDqJsjnYxclKqsHGhTQc4QqerYqCt0o4XgNHByA0m52ew", "html_attributions": ["<a href=\"https://maps.google.com/maps/contrib/102829967243250838651/photos\">DESI DEADPOOLS</a>"], "height": 3006, "width": 5344}], "rating": 3.5, "geometry": {"location": {"lat": 28.470693, "lng": 77.505308}, "viewport": {"northeast": {"lat": 28.4720419802915, "lng": 77.50665698029151}, "southwest": {"lat": 28.4693440197085, "lng": 77.50395901970849}}}, "opening_hours": {"weekday_text": [], "open_now": true}, "types": ["hospital", "point_of_interest", "establishment"], "id": "cc3d0a2181ab582bd081293fccec93e55c2a0f62", "name": "Kailash Hospital", "reference": "CmRSAAAA215QEhJWWbiwbkqQ1_82H6HF-tAGHg4ykKj_4tXYu3q13DMxsO9zFMP1rB9SieBllxfJF4mdQBHodx0Sa_3dYOVe9DdJ8Cxdsjet8PAhSjxqHZN3EJQ7NEAgRMR3BXUTEhBedQULCtmI2kbItHoXhd0CGhTv_zUYstaRbD6D65YduIR6mMtGzA", "icon": "https://maps.gstatic.com/mapfiles/place_api/icons/doctor-71.png"}]}