[{"hospital_name": "Aarogyam Dham Clinic", "longitude": 76.9845686, "latitude": 29.6907678}, {"hospital_name": "QRG Health City", "longitude": 77.31282089999999, "latitude": 28.3880335}, {"hospital_name": "Maheshwari Hospital : Nursing Home & Eye Center", "longitude": 77.71148, "latitude": 29.46909}, {"hospital_name": "Uttam Hospital", "longitude": 77.4221057, "latitude": 28.6452119}, {"hospital_name": "Malhotra Mother & Child Hospital", "longitude": 76.9588101, "latitude": 29.383367}, {"hospital_name": "Vardaan Hospital", "longitude": 77.2887865, "latitude": 28.3913075}, {"hospital_name": "Jindal Super Speciality Hospital", "longitude": 77.47792679999999, "latitude": 27.230272}, {"hospital_name": "Life Care Hospital", "longitude": 77.010503, "latitude": 29.687564}, {"hospital_name": "Delhi Government Hospital", "longitude": 77.31719, "latitude": 28.50153599999999}, {"hospital_name": "Primus Super Speciality Hospital", "longitude": 77.1812741, "latitude": 28.5929023}, {"hospital_name": "Dr.Pasricha Memorial Eye and Dental Hospital", "longitude": 76.99058889999999, "latitude": 29.691245}, {"hospital_name": "Prabha Eye Hospital", "longitude": 77.3335955, "latitude": 28.138534}, {"hospital_name": "Gautam Hospital", "longitude": 77.0092404, "latitude": 28.4423576}, {"hospital_name": "Phoenix Hospital", "longitude": 77.2443772, "latitude": 28.5500577}, {"hospital_name": "Karna Surgical Maternity & Heart center", "longitude": 76.9936747, "latitude": 29.69439449999999}, {"hospital_name": "Moolechand Bhagat Hospital", "longitude": 77.0267818, "latitude": 28.9855921}, {"hospital_name": "Bal Dharmarth Hospital", "longitude": 76.3120307, "latitude": 29.3059654}, {"hospital_name": "Pragati Hospital", "longitude": 76.6133986, "latitude": 27.5874605}, {"hospital_name": "Siddhant Nursing Home", "longitude": 77.7039412, "latitude": 29.4725665}, {"hospital_name": "Meenakshi Jain hospital", "longitude": 76.3152595, "latitude": 29.3127224}, {"hospital_name": "Sarvhit Hospital", "longitude": 77.7075575, "latitude": 29.0519078}, {"hospital_name": "Haryana Nursing Home Unit - 1", "longitude": 76.996653, "latitude": 29.68232009999999}, {"hospital_name": "IBS Ashwini Hospital", "longitude": 77.3232676, "latitude": 28.36918009999999}, {"hospital_name": "Dr. Minakshi jain Multispeciality Hospital", "longitude": 76.3248861, "latitude": 29.3136959}, {"hospital_name": "Sanjeevani Hospital", "longitude": 77.7137661, "latitude": 29.4763353}, {"hospital_name": "TARAK HOSPITAL INDIA PRIVATE LIMITED", "longitude": 77.0300137, "latitude": 28.61925609999999}, {"hospital_name": "Pulse Hospital", "longitude": 77.29925399999999, "latitude": 28.361286}, {"hospital_name": "Bharat Ayurved Medical College and Hospital and Research Centre", "longitude": 77.750625, "latitude": 29.5500939}, {"hospital_name": "SETHI CHILDREN HOSPITAL.", "longitude": 76.614108, "latitude": 27.5710562}, {"hospital_name": "Drishti Eye Centre", "longitude": 77.3068931, "latitude": 28.3959976}, {"hospital_name": "Alive Hospital & Trauma Centre", "longitude": 84.4288369, "latitude": 27.6855821}, {"hospital_name": "Artemis Hospital Sector 51 Gurgaon", "longitude": 77.067956, "latitude": 28.431546}, {"hospital_name": "Yatharth Wellness Hospital & Trauma Centre", "longitude": 77.5096231, "latitude": 28.45174459999999}, {"hospital_name": "", "longitude": "", "latitude": ""}, {"hospital_name": "Jyoti Hospital", "longitude": 77.2909708, "latitude": 28.3506624}, {"hospital_name": "Deep Chand Bandhu Government Hospital", "longitude": 77.17817219999999, "latitude": 28.6817859}, {"hospital_name": "Kalyani Hospital", "longitude": 76.9600087, "latitude": 29.74426329999999}, {"hospital_name": "Fortis C-Doc Hospital", "longitude": 77.24943950000001, "latitude": 28.5470069}, {"hospital_name": "Sarvodya Hospital", "longitude": 77.3161466, "latitude": 28.422359}, {"hospital_name": "W Pratiksha Hospital", "longitude": 77.097467, "latitude": 28.418522}, {"hospital_name": "CGHS Sector 5, gurgaon, hospital", "longitude": 77.0202461, "latitude": 28.4820894}, {"hospital_name": "Yatharth Wellness Hospital", "longitude": 77.38456819999999, "latitude": 28.5320643}, {"hospital_name": "ICARE Eye Hospital", "longitude": 77.375569, "latitude": 28.629949}, {"hospital_name": "Arihant Hospital - Multispeciality Hospital", "longitude": 76.634676, "latitude": 27.553001}, {"hospital_name": "Aarvy Hospital", "longitude": 77.0301346, "latitude": 28.4574638}, {"hospital_name": "BR Memorial Hospital", "longitude": 77.3240036, "latitude": 28.3348506}, {"hospital_name": "Indus Valley Hospitals", "longitude": 76.991, "latitude": 28.613697}, {"hospital_name": "Narayan Super Speciality Hospital", "longitude": 77.723591, "latitude": 28.9697949}, {"hospital_name": "", "longitude": "", "latitude": ""}, {"hospital_name": "Jagdamba Hospital & Ultra Sound Centre", "longitude": 76.99156219999999, "latitude": 29.6837626}, {"hospital_name": "Cosmos Hospital Palwal", "longitude": 77.3300144, "latitude": 28.1544837}, {"hospital_name": "Bharti Hospital", "longitude": 76.9959793, "latitude": 29.6972069}, {"hospital_name": "Mahar Memorial Hospital", "longitude": 76.6250168, "latitude": 27.5609324}, {"hospital_name": "TRITON HOSPITAL", "longitude": 77.25471670000002, "latitude": 28.54726399999999}, {"hospital_name": "Dr. Baba Saheb Ambedkar Hospital", "longitude": 77.11345899999999, "latitude": 28.7146069}, {"hospital_name": "Navin Hospital", "longitude": 77.549842, "latitude": 28.549554}, {"hospital_name": "Bhawani Memorial Hospital", "longitude": 76.151198, "latitude": 28.27}, {"hospital_name": "Sarvodaya Hospital & Research Center", "longitude": 77.46227209999999, "latitude": 28.6620757}, {"hospital_name": "Privat Hospital", "longitude": 77.074749, "latitude": 28.479793}, {"hospital_name": "Sanchet Hospital", "longitude": 77.088605, "latitude": 28.670032}, {"hospital_name": "Suryadeep Hospital", "longitude": 77.0592321, "latitude": 28.4335341}, {"hospital_name": "Indian Spinal Injuries Centre", "longitude": 77.1421843, "latitude": 28.5331214}, {"hospital_name": "Ayaan Hospital", "longitude": 76.643886, "latitude": 27.57819}, {"hospital_name": "Oscar SuperSpeciality Hospital & Trauma Center", "longitude": 76.6455495, "latitude": 28.60702229999999}, {"hospital_name": "Fortis La Femme", "longitude": 77.2438427, "latitude": 28.5290179}, {"hospital_name": "Navjeevan Hospital", "longitude": 76.59556789999999, "latitude": 27.5443409}, {"hospital_name": "Satyam Hospital", "longitude": 77.017922, "latitude": 28.46102}, {"hospital_name": "Johri Hospital", "longitude": 76.6114345, "latitude": 27.5732195}, {"hospital_name": "Devjan Eye Hospital", "longitude": 76.6198513, "latitude": 27.5561092}, {"hospital_name": "Bhagat Chandra Hospital(unit of Bagat Hospital Pvt Ltd)", "longitude": 77.0812229, "latitude": 28.593451}, {"hospital_name": "Yashoda Superspeciality Hospitals", "longitude": 77.4384019, "latitude": 28.659996}, {"hospital_name": "Perfect Vision Eye Hospital", "longitude": 77.335689, "latitude": 28.142041}, {"hospital_name": "RAMANI NURSING HOME AND MATERNITY HOSPITAL", "longitude": 77.6963505, "latitude": 29.46493860000001}, {"hospital_name": "Maharaja Agrasen Hospital", "longitude": 77.1646348, "latitude": 28.6917647}, {"hospital_name": "Shantideep Hospital", "longitude": 77.84608279999999, "latitude": 28.408596}, {"hospital_name": "Chamber Hospital", "longitude": 77.7117383, "latitude": 29.4645813}, {"hospital_name": "Centre For Sight", "longitude": 77.0404322, "latitude": 28.5962374}, {"hospital_name": "LOKPRIYA HOSPITAL", "longitude": 77.7305532, "latitude": 28.96888}, {"hospital_name": "Lal Bahadur Shastri Hospital", "longitude": 77.3114538, "latitude": 28.6178384}, {"hospital_name": "Hospital Amritdhara", "longitude": 76.9883176, "latitude": 29.68267329999999}, {"hospital_name": "Amritdhara Hospital", "longitude": 77.0032523, "latitude": 29.7071303}, {"hospital_name": "Manas Hospital", "longitude": 77.361639, "latitude": 28.586476}, {"hospital_name": "ESI Dispensary", "longitude": 76.3400137, "latitude": 29.314753}, {"hospital_name": "Ravindra Hospital Panipat", "longitude": 76.9590786, "latitude": 29.38255250000001}, {"hospital_name": "Ansari Hospital", "longitude": 77.1045426, "latitude": 28.6026864}, {"hospital_name": "Kailash Hospital", "longitude": 76.2861064, "latitude": 27.8821437}, {"hospital_name": "Eye Q Super Speciality Eye Hospitals - Near Super Mart I Gurgaon", "longitude": 77.09010219999999, "latitude": 28.4627882}, {"hospital_name": "ESIC Model Hospital", "longitude": 77.3471728, "latitude": 28.5913079}, {"hospital_name": "Shivmani Hospital", "longitude": 77.3051882, "latitude": 28.3932954}, {"hospital_name": "Nidaan Hospital", "longitude": 77.05922799999999, "latitude": 29.017359}, {"hospital_name": "Bharatpur Central Hospital", "longitude": 84.43055389999999, "latitude": 27.6792289}, {"hospital_name": "Aashirwad Neuropsychiatry and Advanced Skin Care Hospital", "longitude": 76.3319492, "latitude": 29.3123444}, {"hospital_name": "Meera Hospital", "longitude": 76.6176924, "latitude": 27.5554963}, {"hospital_name": "Sunrise Hospital", "longitude": 77.0117569, "latitude": 28.4442468}, {"hospital_name": "Anand Hospital", "longitude": 77.74637, "latitude": 28.961808}, {"hospital_name": "Dr BR Sur Homeopathic Medical College And Hospital", "longitude": 77.1664906, "latitude": 28.5833773}, {"hospital_name": "The Solanki Hospital", "longitude": 77.51589419999999, "latitude": 27.2039727}, {"hospital_name": "Sethi Children Hospital", "longitude": 76.616962, "latitude": 27.5687657}, {"hospital_name": "Govind Netralaya", "longitude": 76.1458109, "latitude": 28.2561044}, {"hospital_name": "Max Super Speciality Hospital, Saket", "longitude": 77.2114938, "latitude": 28.5272301}, {"hospital_name": "SHUBHAM HOSPITAL", "longitude": 77.6851655, "latitude": 29.0034337}, {"hospital_name": "Mangalam Hospital", "longitude": 77.6847875, "latitude": 28.9718784}, {"hospital_name": "Vasan Eye Care", "longitude": 77.29490700000001, "latitude": 28.6407823}, {"hospital_name": "Cygnus hospitals", "longitude": 77.24042, "latitude": 27.5658135}, {"hospital_name": "Om Premia Hospital", "longitude": 77.3198786, "latitude": 28.1639148}, {"hospital_name": "Eye Q Super Speciality Eye Hospitals - Shalimar Bagh, New Delhi", "longitude": 77.1687731, "latitude": 28.7053017}, {"hospital_name": "Rawal Multispeciality Hospital", "longitude": 77.006948, "latitude": 28.975946}, {"hospital_name": "Aster Eye Hospital", "longitude": 77.30510810000001, "latitude": 28.4056325}, {"hospital_name": "B.Lal Hospital", "longitude": 76.60528959999999, "latitude": 27.5480943}, {"hospital_name": "SM Hospital", "longitude": 77.7438387, "latitude": 28.9621325}, {"hospital_name": "Animal Hospital", "longitude": 76.61280049999999, "latitude": 27.60112849999999}, {"hospital_name": "OJAS EYE CARE", "longitude": 77.83251800000001, "latitude": 28.414796}, {"hospital_name": "Madaan Hospital", "longitude": 76.9591428, "latitude": 29.3942576}, {"hospital_name": "Tirath Ram Hospitals Private Limited", "longitude": 77.02000799999999, "latitude": 28.457057}, {"hospital_name": "Golden Hospital", "longitude": 77.326261, "latitude": 28.13904}, {"hospital_name": "Ranjana Polyclinic", "longitude": 77.01007779999999, "latitude": 29.6828185}, {"hospital_name": "Metro Hospital & Heart Institute", "longitude": 77.0390172, "latitude": 28.5180666}, {"hospital_name": "Medicheck Hospital", "longitude": 77.2992064, "latitude": 28.4000151}, {"hospital_name": "Sanjeebni Hospital", "longitude": 77.32960299999999, "latitude": 28.355542}, {"hospital_name": "NIMT Hospital", "longitude": 77.5092543, "latitude": 28.46665359999999}, {"hospital_name": "Miglani Hospital", "longitude": 76.9920973, "latitude": 29.6900124}, {"hospital_name": "Best Hospitals & Doctors for Joint Knee Hip Replacement in India", "longitude": 77.043633, "latitude": 28.468266}, {"hospital_name": "Mahindru Hospital", "longitude": 77.0495995, "latitude": 28.6206661}, {"hospital_name": "", "longitude": "", "latitude": ""}, {"hospital_name": "New Zanana Hospital", "longitude": 76.6110498, "latitude": 27.5437882}, {"hospital_name": "SURYAA hospital and SURYA infertility clinic", "longitude": 76.9932014, "latitude": 29.6919114}, {"hospital_name": "Parmar Child Specialist Hospital", "longitude": 76.994501, "latitude": 29.691658}, {"hospital_name": "Fortis Memorial Research Institute: Breast Clinic", "longitude": 77.07255479999999, "latitude": 28.4568992}, {"hospital_name": "Sachdeva Hospital", "longitude": 76.9994492, "latitude": 29.6944927}, {"hospital_name": "World College Of Medical Sciences And Hospital", "longitude": 76.6849926, "latitude": 28.6616176}, {"hospital_name": "Lions Kidney Hospitals", "longitude": 77.2741884, "latitude": 28.5713217}, {"hospital_name": "Columbia Asia Hospital - Palam Vihar", "longitude": 77.041568, "latitude": 28.5090577}, {"hospital_name": "Sanjiv Bansal Cygnus Hospital", "longitude": 76.9766375, "latitude": 29.692096}, {"hospital_name": "Kushwaha Eye Hospital", "longitude": 77.706019, "latitude": 29.458208}, {"hospital_name": "Dr. K.C. Sachdeva Hospital", "longitude": 76.99728429999999, "latitude": 29.694509}, {"hospital_name": "Cygnus MLS Hospital", "longitude": 77.0517198, "latitude": 28.7266879}, {"hospital_name": "Mimhans Neuro Hospital", "longitude": 77.736736, "latitude": 28.9674801}, {"hospital_name": "Goyal Nursing Home", "longitude": 77.33551469999999, "latitude": 28.1445935}, {"hospital_name": "Janakpuri Super Speciality Hospital", "longitude": 77.0898302, "latitude": 28.6212246}, {"hospital_name": "Saluja Nursing Home", "longitude": 77.33507569999999, "latitude": 28.1348253}, {"hospital_name": "City Dental Clinic", "longitude": 76.6489801, "latitude": 28.6083238}, {"hospital_name": "Happy Family Hospital", "longitude": 77.00837419999999, "latitude": 29.6787437}, {"hospital_name": "Gupta Hospital & Maternity Home", "longitude": 76.3150692, "latitude": 29.3090416}, {"hospital_name": "Supreme Hospital", "longitude": 76.61036399999999, "latitude": 27.570407}, {"hospital_name": "Shivam Hospital", "longitude": 76.93790249999999, "latitude": 28.7050963}, {"hospital_name": "Rai Hospital", "longitude": 77.0744876, "latitude": 29.0270902}, {"hospital_name": "Sirohi Hospital", "longitude": 77.6634827, "latitude": 28.9712402}, {"hospital_name": "Dr Smita Vats - Best Gynaecologist in Gurgaon, India", "longitude": 77.055534, "latitude": 28.473496}, {"hospital_name": "Sukhdeva Hospital", "longitude": 76.6538161, "latitude": 28.6024909}, {"hospital_name": "Jan Kalyan Charitable Hospital", "longitude": 77.1989269, "latitude": 28.6493379}, {"hospital_name": "Military Hospital", "longitude": 77.6860081, "latitude": 28.9871419}, {"hospital_name": "Government District Hospital", "longitude": 77.2170731, "latitude": 28.9463876}, {"hospital_name": "Ganesh Hospital", "longitude": 77.4394284, "latitude": 28.6624061}, {"hospital_name": "Fortis Flt Lt Rajan Dhall Hospital", "longitude": 77.16034309999999, "latitude": 28.5195194}, {"hospital_name": "CHANDA CHILD AND ENT HOSPITAL", "longitude": 77.021616, "latitude": 29.000624}, {"hospital_name": "Mittal Child Hospital", "longitude": 76.6077213, "latitude": 27.5511401}, {"hospital_name": "Goyal Hospital", "longitude": 77.329666, "latitude": 28.364629}, {"hospital_name": "New Diamond Hospital", "longitude": 76.62272600000001, "latitude": 27.571153}, {"hospital_name": "Apollo Hospital", "longitude": 77.727689, "latitude": 28.9917878}, {"hospital_name": "JIYONATH HOSPITAL", "longitude": 77.7157885, "latitude": 29.4758545}, {"hospital_name": "Jawahar Eye Hospital & Laser Centre", "longitude": 77.700279, "latitude": 28.989222}, {"hospital_name": "Anahat Multispeciality Clinic", "longitude": 77.1070994, "latitude": 28.4833526}, {"hospital_name": "Metro Hospital And Heart Institute | Best Hospital in Delhi | Heart Hospital in Delhi", "longitude": 77.337677, "latitude": 28.597311}, {"hospital_name": "Pannalal Shyamlal Hospital", "longitude": 77.4351911, "latitude": 28.6632841}, {"hospital_name": "Metro Hospital and Cancer Institute | Best cancer Hospital in Delhi | oncology hospital in delhi", "longitude": 77.29485880000001, "latitude": 28.6384762}, {"hospital_name": "Columbia asia hospital", "longitude": 77.41526669999999, "latitude": 28.672145}, {"hospital_name": "Deep Physiotherapy Clinic", "longitude": 76.61581319999999, "latitude": 27.5810462}, {"hospital_name": "Durga Hospital", "longitude": 77.54366499999999, "latitude": 28.545273}, {"hospital_name": "Bharatpur Family Planning hospital", "longitude": 84.43874199999999, "latitude": 27.6711813}, {"hospital_name": "Indraprastha Apollo Hospitals", "longitude": 77.2834563, "latitude": 28.5409246}, {"hospital_name": "Vijay Ayurvedic Hospital", "longitude": 76.6608408, "latitude": 28.6004634}, {"hospital_name": "Nagpal Hospital", "longitude": 77.3044429, "latitude": 28.3800802}, {"hospital_name": "BP Koirala Memorial Cancer Hospital", "longitude": 84.41768599999999, "latitude": 27.6646845}, {"hospital_name": "Delhi ENT Hospital", "longitude": 77.292121, "latitude": 28.5399609}, {"hospital_name": "Bharatpur Hospital", "longitude": 84.43660369999999, "latitude": 27.681851}, {"hospital_name": "Gauri Hospital", "longitude": 77.41990299999999, "latitude": 28.681154}, {"hospital_name": "Shivlok Hospital", "longitude": 77.7078196, "latitude": 29.0586269}, {"hospital_name": "Sanjay Gandhi Memorial Hospital", "longitude": 77.0808462, "latitude": 28.693597}, {"hospital_name": "Shanti Devi Memorial Hospital", "longitude": 77.0002617, "latitude": 29.69191069999999}, {"hospital_name": "Naturopathy & Yoga Hospital (CCRYN)", "longitude": 77.14256449999999, "latitude": 28.7270795}, {"hospital_name": "Apex Hospital and Trauma Centre Panipat", "longitude": 76.99273930000001, "latitude": 29.3888727}, {"hospital_name": "", "longitude": "", "latitude": ""}, {"hospital_name": "Arya Hospitals", "longitude": 77.077187, "latitude": 28.514665}, {"hospital_name": "Guru Nanak Hospital", "longitude": 76.9895626, "latitude": 29.6942041}, {"hospital_name": "Lotus Hospital", "longitude": 77.110765, "latitude": 28.626706}, {"hospital_name": "Asian Institute Of Medical Sciences", "longitude": 77.2998369, "latitude": 28.4262211}, {"hospital_name": "Dr.Shroff's Charity Eye Hospital", "longitude": 77.046635, "latitude": 28.470129}, {"hospital_name": "Life Line Hospital Hapur", "longitude": 77.777559, "latitude": 28.72865999999999}, {"hospital_name": "Shreya Hospital", "longitude": 77.34101179999999, "latitude": 28.6874727}, {"hospital_name": "Krishnawati Hospital", "longitude": 77.0099213, "latitude": 29.0000702}, {"hospital_name": "Artemis Hospital", "longitude": 77.0644081, "latitude": 28.5698444}, {"hospital_name": "City Hospital", "longitude": 77.3245065, "latitude": 28.13680969999999}, {"hospital_name": "Sharp Sight Centre South Delhi", "longitude": 77.163586, "latitude": 28.574644}, {"hospital_name": "Paras Hospitals Obsessive Compulsive Disorder", "longitude": 77.08755699999999, "latitude": 28.45061999999999}, {"hospital_name": "ESI Hospital", "longitude": 77.12590999999999, "latitude": 28.7279373}, {"hospital_name": "Apollo Lifeline Hospital", "longitude": 76.6314089, "latitude": 27.596201}, {"hospital_name": "Employees State Insurance Corporation Hospital", "longitude": 77.00079930000001, "latitude": 28.4681812}, {"hospital_name": "Dev Nandini Hospital", "longitude": 77.79222000000001, "latitude": 28.728815}, {"hospital_name": "BK Sharma Hospital", "longitude": 77.3014845, "latitude": 28.4020802}, {"hospital_name": "Ashutosh Speciality Hospital", "longitude": 77.679699, "latitude": 29.0297261}, {"hospital_name": "K K Hospital", "longitude": 76.6046137, "latitude": 27.5573243}, {"hospital_name": "ESIC Hospital", "longitude": 77.3503989, "latitude": 28.608345}, {"hospital_name": "Rana Hospital", "longitude": 77.8315473, "latitude": 28.4148993}, {"hospital_name": "vaijayanti hospital", "longitude": 76.60518259999999, "latitude": 27.5627024}, {"hospital_name": "Fortis Hospital", "longitude": 77.1702141, "latitude": 28.709163}, {"hospital_name": "Jain Eye Care", "longitude": 76.6146746, "latitude": 27.5772149}, {"hospital_name": "Kakkar Hospital", "longitude": 76.9964358, "latitude": 29.6997863}, {"hospital_name": "Bharatpur Eye Hospital", "longitude": 84.4386595, "latitude": 27.6850244}, {"hospital_name": "Kalpna Chawla Government Medical College & Hospital", "longitude": 76.989632, "latitude": 29.6972344}, {"hospital_name": "Dhanvantri Jeevan Rekha Hospital", "longitude": 77.7247756, "latitude": 28.9891398}, {"hospital_name": "Max Hospital, Pitampura", "longitude": 77.15176260000001, "latitude": 28.6931283}, {"hospital_name": "ESIC Hospitals & Dispensaries", "longitude": 77.3500557, "latitude": 28.5936188}, {"hospital_name": "Raksha Hospital And Trauma Centre", "longitude": 77.22971489999999, "latitude": 28.9357455}, {"hospital_name": "Meerut Hospital", "longitude": 77.7150644, "latitude": 28.9657527}, {"hospital_name": "Aastha Children Clinic", "longitude": 77.31112929999999, "latitude": 28.4716595}, {"hospital_name": "St. Stephen\u2019s Hospital", "longitude": 77.1047521, "latitude": 28.48567479999999}, {"hospital_name": "CHIRAG HOSPITAL", "longitude": 77.0259109, "latitude": 28.5103573}, {"hospital_name": "Adiva Hospital", "longitude": 77.2064357, "latitude": 28.5584551}, {"hospital_name": "Maharishi Ayurveda Hospital", "longitude": 77.1544132, "latitude": 28.7077442}, {"hospital_name": "Arya Children Hospital", "longitude": 76.6475998, "latitude": 28.60782329999999}, {"hospital_name": "Maxivision Super Specialty Eye Hospitals", "longitude": 77.0809455, "latitude": 28.6211102}, {"hospital_name": "Gargi Hospital", "longitude": 77.4496642, "latitude": 28.6831441}, {"hospital_name": "Cygnus J. K. Hindu Hospital", "longitude": 77.018958, "latitude": 28.98122119999999}, {"hospital_name": "Shroff Eye Centre", "longitude": 77.0780319, "latitude": 28.461118}, {"hospital_name": "Ch. Brahm Prakash Ayurved Charak Sansthan", "longitude": 76.9334334, "latitude": 28.5727137}, {"hospital_name": "Neera Nursing Home", "longitude": 76.9931799, "latitude": 29.6941389}, {"hospital_name": "GNH Hospital - Best Multispecialty Hospital Gurgaon India", "longitude": 77.04309889999999, "latitude": 28.4682354}, {"hospital_name": "Global Hospital Bulandshahr", "longitude": 77.8440487, "latitude": 28.40658329999999}, {"hospital_name": "MAYOM HOSPITAL GURGAON", "longitude": 77.0635795, "latitude": 28.4580893}, {"hospital_name": "Ahmed Hospital and Ortho Care", "longitude": 77.04142279999999, "latitude": 28.457976}, {"hospital_name": "Chaudhary Medical & Maternity Hospital", "longitude": 76.99728329999999, "latitude": 29.68762860000001}, {"hospital_name": "Sood Hospital", "longitude": 76.3084342, "latitude": 29.3189167}, {"hospital_name": "Subharti Hospital", "longitude": 77.6381956, "latitude": 28.9614131}, {"hospital_name": "Sharda Hospital", "longitude": 77.4826992, "latitude": 28.4744444}, {"hospital_name": "Shree Ram Medical Store", "longitude": 76.14168579999999, "latitude": 28.7910887}, {"hospital_name": "", "longitude": "", "latitude": ""}, {"hospital_name": "Chandravati Child & Maternity Hospital", "longitude": 77.3162413, "latitude": 28.4161449}, {"hospital_name": "Umkal Hospital", "longitude": 77.0732895, "latitude": 28.4715396}, {"hospital_name": "Dua Hospital", "longitude": 77.02787699999999, "latitude": 28.99466559999999}, {"hospital_name": "G.M Modi Hospital", "longitude": 77.7080825, "latitude": 29.0635363}, {"hospital_name": "Bhagwan Mahavir Hospital", "longitude": 77.12939229999999, "latitude": 28.7058117}, {"hospital_name": "Prakash Hospital Private Limited", "longitude": 77.3494465, "latitude": 28.5855665}, {"hospital_name": "Carewell Hospital", "longitude": 77.307484, "latitude": 28.417557}, {"hospital_name": "Behl Hospital", "longitude": 77.136759, "latitude": 28.624364}, {"hospital_name": "Apollo Clinic", "longitude": 77.36086379999999, "latitude": 28.6341968}, {"hospital_name": "Jeevan Deep Hospital", "longitude": 77.2396803, "latitude": 28.9426644}, {"hospital_name": "QRG Central Hospital & Research Centre", "longitude": 77.31000209999999, "latitude": 28.3930178}, {"hospital_name": "Mittal Hospital", "longitude": 77.33576160000001, "latitude": 28.1460854}, {"hospital_name": "Ganga Devi Pandey Eye Hospital", "longitude": 76.143965, "latitude": 28.253926}, {"hospital_name": "All India Institute of Medical Sciences", "longitude": 76.8690666, "latitude": 28.50667330000001}, {"hospital_name": "Dharamshila Hospital And Research Centre", "longitude": 77.3141035, "latitude": 28.6025189}, {"hospital_name": "Cloudnine Hospital - Sec 47 Gurgaon", "longitude": 77.057441, "latitude": 28.42745760000001}, {"hospital_name": "Paras Hospitals Alcohol, Tobacco and Drug De-addiction Clinic", "longitude": 77.087571, "latitude": 28.45055199999999}, {"hospital_name": "Sri Balaji Action Medical Institute", "longitude": 77.11026729999999, "latitude": 28.6737837}, {"hospital_name": "Deen Dayal Upadhyay Hospital", "longitude": 77.113021, "latitude": 28.6275304}, {"hospital_name": "Sanjeevani Nursing Home", "longitude": 76.9727841, "latitude": 29.3970937}, {"hospital_name": "Safe Hands Hospital", "longitude": 77.046749, "latitude": 28.3949421}, {"hospital_name": "Eye Q Hospital", "longitude": 77.70135549999999, "latitude": 29.46954359999999}, {"hospital_name": "Medfort Hospitals", "longitude": 77.0809341, "latitude": 28.6211182}, {"hospital_name": "Daksh hospital", "longitude": 76.60528049999999, "latitude": 27.5449763}, {"hospital_name": "Maxivision Super Speciality Eye Hospital", "longitude": 76.990495, "latitude": 28.606926}, {"hospital_name": "Fortes Hospital", "longitude": 77.0219019, "latitude": 28.4554726}, {"hospital_name": "Delhi Hospital", "longitude": 76.9416547, "latitude": 28.69043}, {"hospital_name": "Haryana Multispeciality Hospital", "longitude": 77.03022399999999, "latitude": 28.994745}, {"hospital_name": "Alwar Eye Hospital", "longitude": 76.6142835, "latitude": 27.5742064}, {"hospital_name": "Charitable Eye Hospital", "longitude": 77.3203273, "latitude": 28.4131615}, {"hospital_name": "Triveni Hospital", "longitude": 77.084807, "latitude": 28.52617399999999}, {"hospital_name": "Mahabir Dal Hospital", "longitude": 76.9904076, "latitude": 29.6887528}, {"hospital_name": "Hargobind Clinic", "longitude": 77.01633199999999, "latitude": 28.456811}, {"hospital_name": "ILCC HOSPITAL", "longitude": 77.70260739999999, "latitude": 29.4817174}, {"hospital_name": "Harish Hospital", "longitude": 77.84820909999999, "latitude": 28.4072816}, {"hospital_name": "Thakur Hospital", "longitude": 76.9956827, "latitude": 29.6824579}, {"hospital_name": "Acharya Shree Bhikshu Hospital", "longitude": 77.14044899999999, "latitude": 28.6617986}, {"hospital_name": "Vikas Hospital Private Limited", "longitude": 76.9810567, "latitude": 28.6107019}, {"hospital_name": "Apollo Spectra Hospitals", "longitude": 77.2413007, "latitude": 28.5557086}, {"hospital_name": "Geeta Hospital", "longitude": 77.314508, "latitude": 28.436277}, {"hospital_name": "Sushil Garg Hospital", "longitude": 76.9984236, "latitude": 29.6826799}, {"hospital_name": "Arjun Memorial Multispeciality Hospital", "longitude": 77.7241677, "latitude": 28.9488353}, {"hospital_name": "Dr J.K.Goel", "longitude": 77.71290239999999, "latitude": 29.46042199999999}, {"hospital_name": "Aryan Hospital", "longitude": 77.3252065, "latitude": 28.1505603}, {"hospital_name": "Lions Hospital", "longitude": 76.6311193, "latitude": 27.5593979}, {"hospital_name": "Manju Hospital", "longitude": 76.6334581, "latitude": 27.5611575}, {"hospital_name": "Nisar Hospital", "longitude": 77.696727, "latitude": 29.456636}, {"hospital_name": "Western Railway Hospitals", "longitude": 77.29071739999999, "latitude": 28.5032308}, {"hospital_name": "Park Hospital", "longitude": 76.98666229999999, "latitude": 29.3325142}, {"hospital_name": "Evan Multispeciality Hospital & Research Center", "longitude": 77.7397032, "latitude": 29.4719722}, {"hospital_name": "Best Psychiatrist in Gurgaon, Dr. Jyoti Kapoor Madan", "longitude": 77.03692199999999, "latitude": 28.464866}, {"hospital_name": "", "longitude": "", "latitude": ""}, {"hospital_name": "Narayan Hospital", "longitude": 77.4104619, "latitude": 28.6519836}, {"hospital_name": "SDS Global Super Speciality Hospital", "longitude": 77.7094652, "latitude": 29.0674896}, {"hospital_name": "Bajaj Eye Hospital", "longitude": 76.9711295, "latitude": 29.39647770000001}, {"hospital_name": "Advanta Hospital", "longitude": 76.6575766, "latitude": 28.6025272}, {"hospital_name": "Paras Hospital", "longitude": 77.344613, "latitude": 28.647335}, {"hospital_name": "Chitwan Hospital Pvt. Ltd", "longitude": 84.43033790000001, "latitude": 27.6812013}, {"hospital_name": "Tulip Multispeciality Hospital", "longitude": 77.03422909999999, "latitude": 28.9913973}, {"hospital_name": "Dr. Kiran Bajaj skin and laser centre", "longitude": 76.99118969999999, "latitude": 29.6950732}, {"hospital_name": "Apex Hospital", "longitude": 77.33258459999999, "latitude": 28.1531144}, {"hospital_name": "Satya Medical Centre", "longitude": 77.35857659999999, "latitude": 28.5867153}, {"hospital_name": "Sardana Hospital", "longitude": 76.1407152, "latitude": 28.7917967}, {"hospital_name": "College of Medical Sciences (cms)", "longitude": 84.43634829999999, "latitude": 27.68342029999999}, {"hospital_name": "Patel Hospital", "longitude": 76.61994399999999, "latitude": 27.569722}, {"hospital_name": "Valentis Cancer Hospital", "longitude": 77.820582, "latitude": 29.07162899999999}, {"hospital_name": "Religare Hospital", "longitude": 77.4092951, "latitude": 28.64469369999999}, {"hospital_name": "Shree Sai Hospital", "longitude": 77.7056357, "latitude": 29.453772}, {"hospital_name": "Gupta Hospital", "longitude": 77.32453389999999, "latitude": 28.3371595}, {"hospital_name": "Noble Hospital", "longitude": 77.3295601, "latitude": 28.3942905}, {"hospital_name": "Sania Hospital", "longitude": 76.6334182, "latitude": 27.5669366}, {"hospital_name": "Panacea NewRise Super Specialty Hospital", "longitude": 77.101519, "latitude": 28.4979294}, {"hospital_name": "Cygnus Sonia Hospital", "longitude": 77.0523233, "latitude": 28.6823184}, {"hospital_name": "District Hospital", "longitude": 77.69670219999999, "latitude": 29.4787984}, {"hospital_name": "Sachin Hospital", "longitude": 77.3214703, "latitude": 28.1363332}, {"hospital_name": "Ektaa Hospitals - Best Hospital on Sohna Road Gurgaon", "longitude": 77.04079399999999, "latitude": 28.418506}, {"hospital_name": "Bansal Nursing Home", "longitude": 77.335816, "latitude": 28.1405491}, {"hospital_name": "Garg Hospital", "longitude": 77.8558347, "latitude": 28.4026763}, {"hospital_name": "Alwar Nursing Home", "longitude": 76.617459, "latitude": 27.538922}, {"hospital_name": "Sai Multi Specialty Hospital", "longitude": 77.0361832, "latitude": 28.4317031}, {"hospital_name": "Kalra Hospital", "longitude": 77.13855099999999, "latitude": 28.6552017}, {"hospital_name": "Anuj Hospital", "longitude": 77.32110709999999, "latitude": 28.4160078}, {"hospital_name": "Raj hospital", "longitude": 76.3184223, "latitude": 29.3048345}, {"hospital_name": "Rao Tula Ram Memorial Hospital", "longitude": 76.9140943, "latitude": 28.5947387}, {"hospital_name": "Metro Hospitals & Heart Institute", "longitude": 77.2437138, "latitude": 28.564708}, {"hospital_name": "Central Jail Hospital", "longitude": 77.1108682, "latitude": 28.62485959999999}, {"hospital_name": "Sanjeevani Hospital - Child Specialist,Paediatrician,Neonatologist,Baby Clinic,Vaccination Clinic", "longitude": 77.0465747, "latitude": 28.396883}, {"hospital_name": "G. C. Gupta Hospital", "longitude": 76.9830277, "latitude": 29.36842490000001}, {"hospital_name": "Fortis Escorts Hospital", "longitude": 77.3067935, "latitude": 28.3914917}, {"hospital_name": "Meerut Cantt General Hospital", "longitude": 77.703892, "latitude": 28.9941492}, {"hospital_name": "Vajayanti Hospital & Research Centre", "longitude": 76.6049822, "latitude": 27.559752}, {"hospital_name": "Abdullah Hospital", "longitude": 77.82518, "latitude": 28.416906}, {"hospital_name": "Medanta Mediclinic Cybercity", "longitude": 77.087766, "latitude": 28.493802}, {"hospital_name": "Jaypee Hospital", "longitude": 77.3715105, "latitude": 28.5154684}, {"hospital_name": "Bharat Hospital & Trauma Centre", "longitude": 77.735678, "latitude": 28.965341}, {"hospital_name": "Chopra Orthopedic Hospital (Raghuraj Choudhary)", "longitude": 76.6147859, "latitude": 27.57204619999999}, {"hospital_name": "Jaypee Hospital, Bulandshahr", "longitude": 77.9167185, "latitude": 28.3702569}, {"hospital_name": "Sh Moolchand Kidney Hospital & Urological Institue", "longitude": 77.0015517, "latitude": 29.6914468}, {"hospital_name": "Eye - Q Super Specialty Eye Hospital, In Sheetla Hospital", "longitude": 77.026144, "latitude": 28.467941}, {"hospital_name": "Moolchand Ea, Teeth, & Child Charity Hospital", "longitude": 77.7073798, "latitude": 28.9849538}, {"hospital_name": "dental hospital", "longitude": 77.7123536, "latitude": 29.4671661}, {"hospital_name": "Manav Hospital, Best Eye Hospital, Eye Surgeon, Eye Doctor, Orthopaedic Doctor, Eye Specialist", "longitude": 77.4454275, "latitude": 28.6668254}, {"hospital_name": "Batra Hospital", "longitude": 77.0904369, "latitude": 28.63440679999999}, {"hospital_name": "G.C. Gupta Hospital", "longitude": 76.9777562, "latitude": 29.3807321}, {"hospital_name": "Meerut Kidney Hospital", "longitude": 77.7309236, "latitude": 28.9830597}, {"hospital_name": "Arora Hospital", "longitude": 77.50582399999999, "latitude": 27.217524}, {"hospital_name": "", "longitude": "", "latitude": ""}, {"hospital_name": "Avantika Hospital", "longitude": 77.3717714, "latitude": 28.645426}, {"hospital_name": "Sarvodaya Hospital & Institute of Medical Science", "longitude": 77.263948, "latitude": 28.949535}, {"hospital_name": "Madhumita Hospital", "longitude": 76.9729701, "latitude": 29.37998799999999}, {"hospital_name": "Medanta The Medicity", "longitude": 77.04063699999999, "latitude": 28.439238}, {"hospital_name": "Manjula Medical Store", "longitude": 76.6045189, "latitude": 27.5661476}, {"hospital_name": "Raghudeep Hospital", "longitude": 76.95940019999999, "latitude": 29.3961833}, {"hospital_name": "Attar Sain Jain Hospital", "longitude": 77.1497217, "latitude": 28.6816687}, {"hospital_name": "Eves Hospital", "longitude": 77.7087597, "latitude": 28.9815}, {"hospital_name": "Sushila Jaswant Rai Hospital", "longitude": 77.7228075, "latitude": 28.9915612}, {"hospital_name": "Girdhar Hospital", "longitude": 77.025908, "latitude": 28.995923}, {"hospital_name": "Kmc Hospital", "longitude": 77.6893058, "latitude": 28.97275020000001}, {"hospital_name": "Rama Krishna Hospital", "longitude": 77.70065679999999, "latitude": 29.4725279}, {"hospital_name": "Lamba Medicare Centre", "longitude": 76.996758, "latitude": 29.68230419999999}, {"hospital_name": "Hyderabadi Hospital", "longitude": 76.9721568, "latitude": 29.3862604}, {"hospital_name": "Sarvodaya Nursing Home,Meerut", "longitude": 77.7355979, "latitude": 28.9808055}, {"hospital_name": "Orthonova Hospital", "longitude": 77.2046641, "latitude": 28.5293133}, {"hospital_name": "Bansal Children Hospital", "longitude": 76.32214119999999, "latitude": 29.31415729999999}, {"hospital_name": "Vinod Hospital", "longitude": 77.72842969999999, "latitude": 28.9680934}, {"hospital_name": "Dr Shroff Charity Eye Hospital", "longitude": 77.24201120000001, "latitude": 28.64587299999999}, {"hospital_name": "Cygnus Mata Kalawati Hospital", "longitude": 76.96794109999999, "latitude": 29.49321759999999}, {"hospital_name": "Max hospital", "longitude": 77.1532883, "latitude": 28.7279942}, {"hospital_name": "Dr. N.C. Joshi Memorial Hospital", "longitude": 77.19923159999999, "latitude": 28.6523472}, {"hospital_name": "Arvind Hospital", "longitude": 76.9916336, "latitude": 29.6946934}, {"hospital_name": "Miracles Mediclinic", "longitude": 77.0473051, "latitude": 28.4783849}, {"hospital_name": "Prakash Hospital", "longitude": 77.332584, "latitude": 28.3507108}, {"hospital_name": "", "longitude": "", "latitude": ""}, {"hospital_name": "Balaji Hospital", "longitude": 76.3166528, "latitude": 29.3074395}, {"hospital_name": "Smt. Biran Devi Modi Zanana Hospital", "longitude": 77.7855514, "latitude": 28.73136900000001}, {"hospital_name": "Eye Q Super Speciality Eye Hospitals - Muzaffarnagar", "longitude": 77.70228200000001, "latitude": 29.456113}, {"hospital_name": "Kalyan Hospital", "longitude": 76.6167238, "latitude": 27.5800049}, {"hospital_name": "Darya Ram Hospital Pvt. Ltd.", "longitude": 77.026183, "latitude": 29.00262499999999}, {"hospital_name": "Handa Hospital", "longitude": 77.016144, "latitude": 28.9938668}, {"hospital_name": "Bansal Hospitals", "longitude": 77.13113299999999, "latitude": 28.71247999999999}, {"hospital_name": "Eye-Q Super Speciality Eye Hospitals - Sonipat", "longitude": 77.0213902, "latitude": 28.9824788}, {"hospital_name": "Hospital", "longitude": 77.3395228, "latitude": 28.5769045}, {"hospital_name": "Brighton Kavita Hospital", "longitude": 77.3208369, "latitude": 28.4338887}, {"hospital_name": "Aashlok Fortis Hospital", "longitude": 77.1989791, "latitude": 28.5665258}, {"hospital_name": "D N Hospital And Test Tube Baby Center", "longitude": 76.97035129999999, "latitude": 29.3798782}, {"hospital_name": "Lakhi Ram Memorial Hospital", "longitude": 76.6494173, "latitude": 28.60669669999999}, {"hospital_name": "M.J. HOSPITAL (P) LTD.", "longitude": 77.50534999999999, "latitude": 27.22297399999999}, {"hospital_name": "Dr. Prem Hospital", "longitude": 76.9663149, "latitude": 29.3986438}, {"hospital_name": "Medicare Super Speciality Hospital & Trauma Center", "longitude": 76.642876, "latitude": 28.611929}, {"hospital_name": "Bathla Psychiatric Hospital", "longitude": 76.9948027, "latitude": 29.6938057}, {"hospital_name": "Jyoti Hospital And Urology Center", "longitude": 77.0364134, "latitude": 28.4575282}, {"hospital_name": "New Balaji Hospital", "longitude": 77.44396230000001, "latitude": 28.53271669999999}, {"hospital_name": "Eden Hospital", "longitude": 77.25619379999999, "latitude": 28.5593385}, {"hospital_name": "Chirag Hospital", "longitude": 77.011483, "latitude": 28.4954}, {"hospital_name": "Sai Hospital", "longitude": 77.6766031, "latitude": 28.9720964}, {"hospital_name": "Goel Children Hospital", "longitude": 76.9795017, "latitude": 29.3871398}, {"hospital_name": "Artemis Hospital Gurgaon", "longitude": 77.0723886, "latitude": 28.4314767}, {"hospital_name": "Max Healthcare Hospital, Gurgaon", "longitude": 77.07581880000001, "latitude": 28.4603913}, {"hospital_name": "VPS Rockland Hospital", "longitude": 76.9330427, "latitude": 28.36675259999999}, {"hospital_name": "Green Hospital", "longitude": 77.716793, "latitude": 28.9615214}, {"hospital_name": "Jaipur Golden Hospital", "longitude": 77.1097554, "latitude": 28.6977129}, {"hospital_name": "FIMS Hospital", "longitude": 77.068683, "latitude": 28.972259}, {"hospital_name": "Sun Flag Hospital & Research Centre", "longitude": 77.31828010000001, "latitude": 28.40253}, {"hospital_name": "Samvit Hospital", "longitude": 77.03513769999999, "latitude": 28.4349991}, {"hospital_name": "Moga Wala Child Hospital", "longitude": 76.13939789999999, "latitude": 28.80100039999999}, {"hospital_name": "Heart Hospital", "longitude": 77.098353, "latitude": 28.63445200000001}, {"hospital_name": "MMG District Hospital", "longitude": 77.42361009999999, "latitude": 28.6625279}, {"hospital_name": "Sanjivani Hospital", "longitude": 76.3288541, "latitude": 29.3131419}, {"hospital_name": "Centre for Sight", "longitude": 77.0654182, "latitude": 28.463858}, {"hospital_name": "Badshah Khan Government Hospital", "longitude": 77.2992764, "latitude": 28.3926239}, {"hospital_name": "Rk Hospital", "longitude": 77.2927682, "latitude": 28.3912561}, {"hospital_name": "Venkateshwar Hospital", "longitude": 77.03766, "latitude": 28.5888536}, {"hospital_name": "Maharishi Vashisth Sewa Dham Dental Hospital", "longitude": 76.3244966, "latitude": 29.31322519999999}, {"hospital_name": "Tirupati Eye Centre", "longitude": 77.357044, "latitude": 28.587317}, {"hospital_name": "Vedanti Hospital", "longitude": 77.6972437, "latitude": 29.4483478}, {"hospital_name": "B. Lal Children Hospital", "longitude": 76.624594, "latitude": 27.56088}, {"hospital_name": "Lions Eye Hospital", "longitude": 77.4454781, "latitude": 28.66464359999999}, {"hospital_name": "Puspanjali Hospital", "longitude": 84.4303236, "latitude": 27.68245869999999}, {"hospital_name": "Yashlok Hospital", "longitude": 77.71372319999999, "latitude": 28.9857949}, {"hospital_name": "The Cradle", "longitude": 77.0471527, "latitude": 28.4786811}, {"hospital_name": "Nirmal Eye Hospital", "longitude": 76.3229291, "latitude": 29.311479}, {"hospital_name": "MITTAL NURSING HOME", "longitude": 77.023344, "latitude": 28.9886502}, {"hospital_name": "Royal Multispeciality Hospital", "longitude": 77.30372299999999, "latitude": 28.384764}, {"hospital_name": "Nims Hospital", "longitude": 77.2950818, "latitude": 28.3581512}, {"hospital_name": "Metro Heart Institute with Multispeciality", "longitude": 77.31788310000002, "latitude": 28.4061763}, {"hospital_name": "Dr Bhatia Orthopaedic Center", "longitude": 76.99438599999999, "latitude": 29.691613}, {"hospital_name": "Columbia Asia Hospital", "longitude": 77.472527, "latitude": 28.655174}, {"hospital_name": "Fortis Healthcare Ltd.", "longitude": 77.07080739999999, "latitude": 28.4579909}, {"hospital_name": "Prem Hospital Ivf And Surrogacy Centre", "longitude": 77.729782, "latitude": 28.950728}, {"hospital_name": "Shanti Gopal Hospital", "longitude": 77.3793208, "latitude": 28.6418986}, {"hospital_name": "Sarvodaya Hospital", "longitude": 77.0163488, "latitude": 28.477247}, {"hospital_name": "MITR Hospitals", "longitude": 77.359394, "latitude": 28.577838}, {"hospital_name": "Sankhwar Hospital", "longitude": 77.323796, "latitude": 28.615073}, {"hospital_name": "Sunderlal Jain Hospital", "longitude": 77.1814428, "latitude": 28.6917859}, {"hospital_name": "Nulife Superspeciality Hospital", "longitude": 77.125783, "latitude": 28.8914675}, {"hospital_name": "DAYANAND HOSPITAL", "longitude": 77.7080654, "latitude": 28.9950741}, {"hospital_name": "Amar Hospital", "longitude": 77.0101208, "latitude": 29.6813352}, {"hospital_name": "Ahuja Hospital", "longitude": 76.9823213, "latitude": 29.3872607}, {"hospital_name": "Banwari Lal Ayurvedic Store", "longitude": 76.1385638, "latitude": 28.7886294}, {"hospital_name": "Eye Q Super Speciality Eye Hospitals - Jhajjar", "longitude": 76.646801, "latitude": 28.605218}, {"hospital_name": "AR Mittal Hospital", "longitude": 76.9675541, "latitude": 29.3796719}, {"hospital_name": "Apurva Hospital", "longitude": 77.2898336, "latitude": 28.3890985}, {"hospital_name": "MSAROGYAM (Ayurveda & Kshar-Sutra Center) Hemorrhoids Piles Fistula Hospital", "longitude": 77.7144464, "latitude": 29.47855239999999}, {"hospital_name": "Mohan Swarup Hospital", "longitude": 77.5412733, "latitude": 28.5669924}, {"hospital_name": "Bhagat Hospital", "longitude": 77.1059911, "latitude": 28.6086292}, {"hospital_name": "Paras Nursing Home", "longitude": 77.01220579999999, "latitude": 29.687109}, {"hospital_name": "Ajay Hospital", "longitude": 77.7589747, "latitude": 28.9523756}, {"hospital_name": "Navdeep Hair transplant & Laser Clinic", "longitude": 76.97185999999999, "latitude": 29.39704699999999}, {"hospital_name": "Shiva Hospital Dev Nagar Sonipat", "longitude": 77.0131171, "latitude": 28.9908843}, {"hospital_name": "Solanki Hospital", "longitude": 76.6109316, "latitude": 27.5591137}, {"hospital_name": "Pahuja Hospital", "longitude": 76.970823, "latitude": 29.4034857}, {"hospital_name": "Geetanjali Trauma & Advanced Surgical Centre", "longitude": 76.6128049, "latitude": 27.566871}, {"hospital_name": "Uma Sanjeevani Health Centre", "longitude": 77.0864021, "latitude": 28.4814431}, {"hospital_name": "Neelkanth Hospitals Pvt Ltd", "longitude": 77.1076516, "latitude": 28.4834487}, {"hospital_name": "TANEJA HOSPITAL", "longitude": 77.705708, "latitude": 29.47264}, {"hospital_name": "Dr. Sushil Rajvanshi", "longitude": 77.7114124, "latitude": 29.4674396}, {"hospital_name": "Janta Hospital", "longitude": 76.937397, "latitude": 28.35504599999999}, {"hospital_name": "", "longitude": "", "latitude": ""}, {"hospital_name": "Hope Speciality Hospital", "longitude": 77.7119694, "latitude": 28.9882223}]